contentid,contenttypeid,name,address,addr2,lon,lat,cat1,cat2,cat3,image_url,tel,sub_category,sido,source
2871024,39,가나돈까스의집,서울특별시 강남구 언주로 608,,127.0377755568,37.5099674377,A05,A0502,A05020100,http://tong.visitkorea.or.kr/cms/resource/08/2871008_image2_1.JPG,,한식,서울특별시,tourapi_food
2869760,39,가담,서울특별시 강남구 언주로167길 35 (신사동),,127.0302729961,37.5264209476,A05,A0502,A05020400,http://tong.visitkorea.or.kr/cms/resource/53/2869753_image2_1.jpg,,중식,서울특별시,tourapi_food
2849631,39,가막골흑염소요리전문점,서울특별시 강서구 화곡로56길 37-11,,126.8518857611,37.5516842628,A05,A0502,A05020100,http://tong.visitkorea.or.kr/cms/resource/29/2849629_image2_1.jpg,,한식,서울특별시,tourapi_food
1052741,39,가문,서울특별시 강북구 노해로 13,,127.0226983297,37.6368246468,A05,A0502,A05020400,,02-990-0107,중식,서울특별시,tourapi_food
2836567,39,가산물갈비&백년불고기,서울특별시 금천구 가산디지털1로 128 에스티엑스브이타워,110호,126.8837682791,37.4773045854,A05,A0502,A05020100,http://tong.visitkorea.or.kr/cms/resource/60/2836560_image2_1.jpg,,한식,서울특별시,tourapi_food
2873184,39,가야밀냉면해물칼국수,서울특별시 은평구 대서문길 36 (진관동),,126.948537895,37.6555794652,A05,A0502,A05020100,http://tong.visitkorea.or.kr/cms/resource/70/2873170_image2_1.jpg,,한식,서울특별시,tourapi_food
2850213,39,가양칼국수버섯매운탕,서울특별시 영등포구 국제금융로 78 (여의도동),,126.9313127207,37.5209253677,A05,A0502,A05020100,http://tong.visitkorea.or.kr/cms/resource/00/2850200_image2_1.jpg,,한식,서울특별시,tourapi_food
2901229,39,가조쿠,서울특별시 성동구 연무장길 31-2 (성수동2가),,127.0531343258,37.5432832891,A05,A0502,A05020300,http://tong.visitkorea.or.kr/cms/resource/12/2901212_image2_1.jpg,,일식,서울특별시,tourapi_food
2854328,39,가족천하 본점,서울특별시 영등포구 가마산로 330 (대림동),,126.8963415265,37.4989023017,A05,A0502,A05020100,,,한식,서울특별시,tourapi_food
2853860,39,각시보쌈,서울특별시 마포구 성지길 25 보광빌딩,,126.9134774828,37.5475858397,A05,A0502,A05020100,http://tong.visitkorea.or.kr/cms/resource/51/2853851_image2_1.jpg,,한식,서울특별시,tourapi_food
2836651,39,갈비명가이상 돈암본관,서울특별시 성북구 정릉로 364,,127.0236686891,37.6015259912,A05,A0502,A05020100,http://tong.visitkorea.or.kr/cms/resource/42/2836642_image2_1.jpg,,한식,서울특별시,tourapi_food
2860770,39,갈비사랑,서울특별시 서초구 강남대로 204 (양재동),,127.0367458713,37.482531716,A05,A0502,A05020100,http://tong.visitkorea.or.kr/cms/resource/58/2860758_image2_1.jpg,,한식,서울특별시,tourapi_food
2875276,39,갈현동할머니떡볶이,서울특별시 은평구 통일로87길 8-1 (갈현동),,126.9187804084,37.6235354372,A05,A0502,A05020100,http://tong.visitkorea.or.kr/cms/resource/67/2875267_image2_1.jpg,,한식,서울특별시,tourapi_food
2622715,39,감꽃당,서울특별시 종로구 돈화문로11다길 38,,126.9900725369,37.5738480486,A05,A0502,A05020900,http://tong.visitkorea.or.kr/cms/resource/24/2622724_image2_1.jpg,02-747-3999,카페·디저트,서울특별시,tourapi_food
2843816,39,감나무집기사식당,서울특별시 마포구 연남로 25 (연남동),,126.9219151974,37.561950988,A05,A0502,A05020100,http://tong.visitkorea.or.kr/cms/resource/14/2843814_image2_1.jpg,,한식,서울특별시,tourapi_food
2833002,39,감동식당,서울특별시 노원구 한글비석로47길 58,1층,127.0665963946,37.6617086556,A05,A0502,A05020100,http://tong.visitkorea.or.kr/cms/resource/94/2832994_image2_1.jpg,,한식,서울특별시,tourapi_food
2851590,39,값진식육,서울특별시 영등포구 선유로 58-4 (문래동3가),,126.8896998979,37.5190803938,A05,A0502,A05020100,http://tong.visitkorea.or.kr/cms/resource/81/2851581_image2_1.jpg,,한식,서울특별시,tourapi_food
2869782,39,갓포아키 도산공원점,서울특별시 강남구 도산대로45길 8-3 쿠키빌딩,,127.0362419924,37.5230742215,A05,A0502,A05020300,http://tong.visitkorea.or.kr/cms/resource/72/2869772_image2_1.jpg,,일식,서울특별시,tourapi_food
2869794,39,갓포준 x 에스테반,서울특별시 강남구 논현로163길 10 (신사동),,127.0273372138,37.52425448,A05,A0502,A05020300,http://tong.visitkorea.or.kr/cms/resource/90/2869790_image2_1.jpg,,일식,서울특별시,tourapi_food
135136,39,강강술래 신림동,서울특별시 관악구 남부순환로 1660,,126.9350272959,37.4845518811,A05,A0502,A05020100,,,한식,서울특별시,tourapi_food
1756249,39,강남목장,서울특별시 강남구 논현로86길 34,,127.0402783799,37.5003213806,A05,A0502,A05020100,,02-562-7003,한식,서울특별시,tourapi_food
2871478,39,강남진해장,서울특별시 강남구 테헤란로5길 11 (역삼동),,127.0292766253,37.4995434958,A05,A0502,A05020100,http://tong.visitkorea.or.kr/cms/resource/61/2871461_image2_1.jpg,,한식,서울특별시,tourapi_food
2839494,39,강동반상,서울특별시 강동구 상일로6길 39 강동타워,지하 1층,127.1753646796,37.5498569527,A05,A0502,A05020100,http://tong.visitkorea.or.kr/cms/resource/86/2839486_image2_1.jpg,,한식,서울특별시,tourapi_food
2839510,39,강동해물찜해천탕,서울특별시 강동구 양재대로 1416,,127.1385935255,37.5323083258,A05,A0502,A05020100,http://tong.visitkorea.or.kr/cms/resource/99/2839499_image2_1.jpg,,한식,서울특별시,tourapi_food
2900328,39,강수사,서울특별시 서대문구 연희로 157 (연희동),,126.9342193638,37.5714167743,A05,A0502,A05020300,http://tong.visitkorea.or.kr/cms/resource/18/2900318_image2_1.jpg,,일식,서울특별시,tourapi_food
2847165,39,강촌쌈밥,서울특별시 종로구 평창30길 9,,126.9747812177,37.610762927,A05,A0502,A05020100,http://tong.visitkorea.or.kr/cms/resource/54/2847154_image2_1.jpg,,한식,서울특별시,tourapi_food
2848108,39,개뿔,서울특별시 종로구 낙산성곽서1길 26 (이화동),,127.0080624399,37.5782311958,A05,A0502,A05020900,http://tong.visitkorea.or.kr/cms/resource/05/2848105_image2_1.jpg,,카페·디저트,서울특별시,tourapi_food
398373,39,개성만두 궁,서울특별시 종로구 인사동10길 11-3 (관훈동),,126.9854257249,37.5743229103,A05,A0502,A05020100,,02-733-9240,한식,서울특별시,tourapi_food
134746,39,개화,서울특별시 중구 남대문로 52-5 (명동2가),,126.9818402861,37.5621214856,A05,A0502,A05020400,http://tong.visitkorea.or.kr/cms/resource/96/3474896_image2_1.jpg,02-776-0508,중식,서울특별시,tourapi_food
2849647,39,개화산장,서울특별시 강서구 개화동로19길 6-53 (방화동),,126.8039700643,37.573861386,A05,A0502,A05020100,http://tong.visitkorea.or.kr/cms/resource/40/2849640_image2_1.jpg,,한식,서울특별시,tourapi_food
2663444,39,거창 왕돈까스,서울특별시 영등포구 국제금융로6길 30 (여의도동),,126.9266186801,37.521775185,A05,A0502,A05020100,http://tong.visitkorea.or.kr/cms/resource/45/2663445_image2_1.jpg,,한식,서울특별시,tourapi_food
2789203,39,경동함흥냉면,서울특별시 동대문구 고산자로38길 19,(제기동),127.0396456189,37.5801509845,A05,A0502,A05020100,http://tong.visitkorea.or.kr/cms/resource/42/2789742_image2_1.jpg,,한식,서울특별시,tourapi_food
2875315,39,경복식당,"서울특별시 노원구 공릉로39길 10 (공릉동, 대아아파트)",,127.0788741361,37.6237632891,A05,A0502,A05020100,http://tong.visitkorea.or.kr/cms/resource/04/2875304_image2_1.jpg,,한식,서울특별시,tourapi_food
2855743,39,경천애인2237,서울특별시 강남구 테헤란로 421 (삼성동),3층,127.0525465458,37.5060431587,A05,A0502,A05020100,http://tong.visitkorea.or.kr/cms/resource/27/2855727_image2_1.jpg,,한식,서울특별시,tourapi_food
2842443,39,경회루,서울특별시 노원구 동일로 1005 (공릉동),,127.0745301956,37.6199803173,A05,A0502,A05020100,http://tong.visitkorea.or.kr/cms/resource/38/2842438_image2_1.jpg,,한식,서울특별시,tourapi_food
2367770,39,계림식당,서울특별시 종로구 돈화문로4길 39,,126.9945027934,37.5701624455,A05,A0502,A05020100,http://tong.visitkorea.or.kr/cms/resource/71/2367771_image2_1.jpg,02-2263-6658,한식,서울특별시,tourapi_food
2895161,39,계월,서울특별시 성동구 성덕정3길 8 (성수동1가),,127.0476515952,37.5396169495,A05,A0502,A05020100,http://tong.visitkorea.or.kr/cms/resource/44/2895144_image2_1.JPG,,한식,서울특별시,tourapi_food
2901359,39,계자람,서울특별시 성동구 성덕정17길 5 (성수동2가),,127.0551704068,37.5378061841,A05,A0502,A05020100,http://tong.visitkorea.or.kr/cms/resource/51/2901351_image2_1.jpg,,한식,서울특별시,tourapi_food
2901371,39,고기다,서울특별시 성동구 성수일로12길 20 (성수동2가),,127.053264729,37.5482271614,A05,A0502,A05020100,http://tong.visitkorea.or.kr/cms/resource/65/2901365_image2_1.jpg,,한식,서울특별시,tourapi_food
3551926,39,고깃집열,서울특별시 서초구 서초대로78길 48 (서초동),,127.0286212989,37.4935414029,A05,A0502,A05020100,http://tong.visitkorea.or.kr/cms/resource/93/3587093_image2_1.jpg,,한식,서울특별시,tourapi_food
2844673,39,고도식,서울특별시 송파구 백제고분로45길 28 (송파동),,127.1086829802,37.5104019962,A05,A0502,A05020100,http://tong.visitkorea.or.kr/cms/resource/70/2844670_image2_1.jpg,,한식,서울특별시,tourapi_food
2823949,39,고두리 용산점,서울특별시 용산구 한강대로39길 10,,126.9686007095,37.5308748789,A05,A0502,A05020100,,,한식,서울특별시,tourapi_food
3359119,39,고라니커피클럽,서울특별시 용산구 한강대로 262 (남영동),,126.9732138716,37.5417237015,A05,A0502,A05020900,,,카페·디저트,서울특별시,tourapi_food
403515,39,고래불,서울특별시 강남구 논현로79길 62 (역삼동),,127.0339707338,37.4963300643,A05,A0502,A05020100,http://tong.visitkorea.or.kr/cms/resource/01/3584401_image2_1.jpg,,한식,서울특별시,tourapi_food
133854,39,고려삼계탕,서울특별시 중구 서소문로11길 1 (서소문동),,126.9729271831,37.5630517738,A05,A0502,A05020100,,,한식,서울특별시,tourapi_food
2663450,39,고려정,서울특별시 영등포구 국제금융로6길 30 (여의도동),,126.9266186801,37.521775185,A05,A0502,A05020100,http://tong.visitkorea.or.kr/cms/resource/51/2663451_image2_1.jpg,,한식,서울특별시,tourapi_food
2839061,39,고른햇살,서울특별시 성북구 개운사길 14,,127.0294741271,37.5870583326,A05,A0502,A05020100,http://tong.visitkorea.or.kr/cms/resource/47/2839047_image2_1.jpg,,한식,서울특별시,tourapi_food
2900309,39,고미정,서울특별시 서대문구 연희로26길 28 (연희동),,126.9370385134,37.5727583353,A05,A0502,A05020100,http://tong.visitkorea.or.kr/cms/resource/06/2900306_image2_1.jpg,,한식,서울특별시,tourapi_food
2371881,39,고성막국수,서울특별시 강서구 방화대로49길 6-7,,126.8161299653,37.5774278543,A05,A0502,A05020100,,02-2665-1205,한식,서울특별시,tourapi_food
2849296,39,고센인코퍼레이티드 청담점,서울특별시 강남구 선릉로158길 18,,127.0414470115,37.525260172,A05,A0502,A05020900,http://tong.visitkorea.or.kr/cms/resource/86/2849286_image2_1.jpg,,카페·디저트,서울특별시,tourapi_food
3446770,39,고카페 용산아이파크몰점,서울특별시 용산구 한강대로23길 55 (한강로3가),더 센터5층,126.9647566449,37.5298249324,A05,A0502,A05020900,http://tong.visitkorea.or.kr/cms/resource/60/3446560_image2_1.jpg,02-2012-2189,카페·디저트,서울특별시,tourapi_food
2869819,39,골드피쉬 딤섬퀴진,서울특별시 강남구 압구정로48길 35 (신사동),,127.0371223814,37.526123883,A05,A0502,A05020400,http://tong.visitkorea.or.kr/cms/resource/06/2869806_image2_1.jpg,,중식,서울특별시,tourapi_food
2834563,39,골목떡볶이,서울특별시 송파구 문정로1길 33,,127.1234850164,37.4891019577,A05,A0502,A05020100,http://tong.visitkorea.or.kr/cms/resource/59/2834559_image2_1.jpg,,한식,서울특별시,tourapi_food
2782825,39,골목집,서울특별시 영등포구 도림로125길 34 (문래동2가),,126.8931053057,37.5133061252,A05,A0502,A05020100,http://tong.visitkorea.or.kr/cms/resource/74/2782574_image2_1.jpg,,한식,서울특별시,tourapi_food
133868,39,곰바위,서울특별시 강남구 영동대로115길 10 (삼성동),,127.0588318325,37.5149422384,A05,A0502,A05020100,,02-511-0068,한식,서울특별시,tourapi_food
2779128,39,공기(Gongi),서울특별시 용산구 이태원로45길 4,(한남동),126.9993644218,37.536252584,A05,A0502,A05020100,http://tong.visitkorea.or.kr/cms/resource/18/3572218_image2_1.jpg,,한식,서울특별시,tourapi_food
2839074,39,공푸,서울특별시 성북구 삼선교로24길 29,,127.0161225147,37.5888662157,A05,A0502,A05020400,http://tong.visitkorea.or.kr/cms/resource/65/2839065_image2_1.jpg,,중식,서울특별시,tourapi_food
2844918,39,광양불고기,서울특별시 송파구 백제고분로39길 6 (석촌동),,127.1054750906,37.5050775567,A05,A0502,A05020100,http://tong.visitkorea.or.kr/cms/resource/13/2844913_image2_1.jpg,,한식,서울특별시,tourapi_food
232271,39,광양불고기본가,서울특별시 강남구 도곡로99길 16,,127.0660509898,37.5018994384,A05,A0502,A05020100,http://tong.visitkorea.or.kr/cms/resource/93/3109393_image2_1.JPG,02-567-8494,한식,서울특별시,tourapi_food
2794769,39,광장싸롱 1961,서울특별시 종로구 동호로 403-3 (종로5가),,127.0016854663,37.5703653287,A05,A0502,A05020900,http://tong.visitkorea.or.kr/cms/resource/89/2794889_image2_1.jpg,,카페·디저트,서울특별시,tourapi_food
2849659,39,광주똑순이아구찜,서울특별시 강서구 강서로 375-8 정호빌딩,,126.8378757098,37.55943589,A05,A0502,A05020100,http://tong.visitkorea.or.kr/cms/resource/53/2849653_image2_1.jpg,,한식,서울특별시,tourapi_food
2543919,39,광화문 세종클럽,서울특별시 종로구 새문안로5가길 7 (내수동),,126.9740518037,37.5728256579,A05,A0502,A05020700,,,체험음식,서울특별시,tourapi_food
2914214,39,광화문국밥,서울특별시 중구 세종대로21길 53 (정동),,126.9754462294,37.5690039051,A05,A0502,A05020100,http://tong.visitkorea.or.kr/cms/resource/09/2914209_image2_1.jpg,,한식,서울특별시,tourapi_food
2853913,39,괴르츠,서울특별시 마포구 토정로 136-13 (상수동),,126.9258347656,37.5449169264,A05,A0502,A05020200,http://tong.visitkorea.or.kr/cms/resource/06/2853906_image2_1.jpg,,서양식,서울특별시,tourapi_food
2853890,39,교다이야,서울특별시 마포구 성지길 39 (합정동),,126.9132191921,37.5469081365,A05,A0502,A05020300,http://tong.visitkorea.or.kr/cms/resource/83/2853883_image2_1.jpg,,일식,서울특별시,tourapi_food
2836141,39,구기동오면,서울특별시 종로구 진흥로 455 (구기동),,126.9589188753,37.6072324975,A05,A0502,A05020100,http://tong.visitkorea.or.kr/cms/resource/34/2836134_image2_1.jpg,,한식,서울특별시,tourapi_food
2873289,39,구수옥설렁탕,서울특별시 관악구 남부순환로 1674 (신림동),,126.9365160531,37.484410258,A05,A0502,A05020100,http://tong.visitkorea.or.kr/cms/resource/80/2873280_image2_1.jpg,,한식,서울특별시,tourapi_food
2789667,39,구스아일랜드 브루하우스,서울특별시 강남구 역삼로 118 (역삼동),,127.0321959757,37.4934831403,A05,A0502,A05020700,http://tong.visitkorea.or.kr/cms/resource/57/2796157_image2_1.jpg,,체험음식,서울특별시,tourapi_food
2895211,39,구욱희씨,서울특별시 성동구 서울숲4길 12-22,"1층,2층",127.0418907953,37.5471631921,A05,A0502,A05020900,http://tong.visitkorea.or.kr/cms/resource/08/2895208_image2_1.jpg,,카페·디저트,서울특별시,tourapi_food
2895236,39,구펠,서울특별시 성동구 왕십리로14길 30-1 (성수동1가),,127.0470125152,37.548413139,A05,A0502,A05020900,http://tong.visitkorea.or.kr/cms/resource/26/2895226_image2_1.jpg,,카페·디저트,서울특별시,tourapi_food
403337,39,국시집,서울특별시 성북구 창경궁로43길 9,,127.0043374886,37.5884827151,A05,A0502,A05020100,http://tong.visitkorea.or.kr/cms/resource/93/3574793_image2_1.jpg,02-762-1924,한식,서울특별시,tourapi_food
403283,39,국화정원,서울특별시 성북구 성북로 154 (성북동),,126.9927189286,37.5946179043,A05,A0502,A05020100,http://tong.visitkorea.or.kr/cms/resource/23/3578623_image2_1.jpg,,한식,서울특별시,tourapi_food
2778425,39,군산오징어 본점,서울특별시 송파구 삼학사로 101,(삼전동),127.0970258234,37.5063411468,A05,A0502,A05020100,http://tong.visitkorea.or.kr/cms/resource/94/3578694_image2_1.jpg,,한식,서울특별시,tourapi_food
2914730,39,군산찜,서울특별시 마포구 새터산길 2 (성산동),,126.9074108771,37.5650253711,A05,A0502,A05020100,http://tong.visitkorea.or.kr/cms/resource/22/2914722_image2_1.jpg,,한식,서울특별시,tourapi_food
2901437,39,굴림,서울특별시 성동구 성수이로5길 1 (성수동2가),,127.0535955921,37.5363285496,A05,A0502,A05020900,http://tong.visitkorea.or.kr/cms/resource/27/2901427_image2_1.jpg,,카페·디저트,서울특별시,tourapi_food
232218,39,궁나라냉면묵밥,서울특별시 종로구 지봉로12길 6,,127.0158673219,37.5769092675,A05,A0502,A05020100,,,한식,서울특별시,tourapi_food
2870435,39,권숙수,서울특별시 강남구 압구정로80길 37 (청담동),,127.0435940627,37.5244297515,A05,A0502,A05020100,http://tong.visitkorea.or.kr/cms/resource/10/2870410_image2_1.jpg,,한식,서울특별시,tourapi_food
2898994,39,그라데이션커피,서울특별시 성동구 상원12길 24-1 (성수동1가),,127.0503093754,37.5505990552,A05,A0502,A05020900,http://tong.visitkorea.or.kr/cms/resource/82/2898982_image2_1.jpg,,카페·디저트,서울특별시,tourapi_food
2864251,39,그라운드62(GROUND62),서울특별시 종로구 평창길 62 (평창동),,126.9632267839,37.6083768858,A05,A0502,A05020900,http://tong.visitkorea.or.kr/cms/resource/40/2864240_image2_1.jpg,,카페·디저트,서울특별시,tourapi_food
1515607,39,그란구스또,서울특별시 강남구 삼성로 340,"1, 2층",127.0595765768,37.5019687584,A05,A0502,A05020200,http://tong.visitkorea.or.kr/cms/resource/95/1514395_image2_1.jpg,0507-1322-3960,서양식,서울특별시,tourapi_food
2870471,39,그랑씨엘,서울특별시 강남구 도산대로45길 16-6,1층,127.035853128,37.523443616,A05,A0502,A05020200,http://tong.visitkorea.or.kr/cms/resource/61/2870461_image2_1.jpg,,서양식,서울특별시,tourapi_food
2839324,39,그레도제빵사,서울특별시 성북구 화랑로 304 진성38 빌딩,1층,127.0622259471,37.6134364113,A05,A0502,A05020900,http://tong.visitkorea.or.kr/cms/resource/15/2839315_image2_1.jpg,,카페·디저트,서울특별시,tourapi_food
403305,39,그릭조이,서울특별시 마포구 성지1길 6,,126.913774659,37.5482552117,A05,A0502,A05020200,,02-338-2100,서양식,서울특별시,tourapi_food
2894873,39,그린랩,서울특별시 성동구 서울숲2길 18-11,,127.040593698,37.5469020873,A05,A0502,A05020900,http://tong.visitkorea.or.kr/cms/resource/64/2894864_image2_1.JPG,,카페·디저트,서울특별시,tourapi_food
135627,39,그릴에이치(Grill H),서울특별시 강남구 도산대로 439,,127.0437551686,37.524077018,A05,A0502,A05020200,http://tong.visitkorea.or.kr/cms/resource/05/1490605_image2_1.jpg,02-3446-5547,서양식,서울특별시,tourapi_food
2846970,39,금강산감자탕 방이점,서울특별시 송파구 위례성대로 34 (방이동),,127.1160377125,37.5158459413,A05,A0502,A05020100,http://tong.visitkorea.or.kr/cms/resource/68/2846968_image2_1.jpg,,한식,서울특별시,tourapi_food
1882945,39,금강수림,서울특별시 강남구 강남대로 240,,127.0344460047,37.4852202516,A05,A0502,A05020100,,,한식,서울특별시,tourapi_food
2652993,39,금동화로숯불구이,서울특별시 중구 퇴계로41길 35 (인현동2가),1층,126.9954084594,37.5633354777,A05,A0502,A05020100,http://tong.visitkorea.or.kr/cms/resource/58/2654758_image2_1.jpg,02-2264-3002,한식,서울특별시,tourapi_food
2778424,39,금돼지식당,서울특별시 중구 다산로 149 (신당동),,127.0116932624,37.5571475999,A05,A0502,A05020100,http://tong.visitkorea.or.kr/cms/resource/68/3591068_image2_1.jpg,,한식,서울특별시,tourapi_food
2671202,39,금룡,서울특별시 영등포구 국회대로70길 19 (여의도동),,126.9208523275,37.5292714336,A05,A0502,A05020400,http://tong.visitkorea.or.kr/cms/resource/07/2671207_image2_1.jpg,02-785-0609,중식,서울특별시,tourapi_food
2789192,39,금문,서울특별시 종로구 창경궁로 269-1 (혜화동),,127.0006406888,37.585466333,A05,A0502,A05020400,http://tong.visitkorea.or.kr/cms/resource/04/2789804_image2_1.jpg,,중식,서울특별시,tourapi_food
2653000,39,금성관나주곰탕,서울특별시 중구 남대문로 29,,126.9788572423,37.5614826177,A05,A0502,A05020100,http://tong.visitkorea.or.kr/cms/resource/48/2661548_image2_1.jpg,02-753-7898,한식,서울특별시,tourapi_food
2544579,39,금용문,서울특별시 종로구 새문안로5가길 7 (내수동),2층,126.9740518037,37.5728256579,A05,A0502,A05020400,http://tong.visitkorea.or.kr/cms/resource/54/2544554_image2_1.bmp,02-731-2502,중식,서울특별시,tourapi_food
2901550,39,기미사 성수,서울특별시 성동구 성수이로26길 47 (성수동2가),,127.0627889477,37.5451860192,A05,A0502,A05020900,http://tong.visitkorea.or.kr/cms/resource/33/2901533_image2_1.jpg,,카페·디저트,서울특별시,tourapi_food
2029960,39,기와,서울특별시 용산구 한강대로21나길 40 (한강로3가),,126.9640706549,37.5277557163,A05,A0502,A05020100,,02-710-7777,한식,서울특별시,tourapi_food
2850314,39,기절초풍왕순대,서울특별시 관악구 봉천로62길 2 (봉천동),,126.9584336783,37.4781641526,A05,A0502,A05020100,http://tong.visitkorea.or.kr/cms/resource/04/2850304_image2_1.jpg,,한식,서울특별시,tourapi_food
2901568,39,기후,서울특별시 성동구 성수이로 66 서울숲 드림타워,1층 106호,127.0561480144,37.5406725356,A05,A0502,A05020300,http://tong.visitkorea.or.kr/cms/resource/59/2901559_image2_1.jpg,,일식,서울특별시,tourapi_food
2849681,39,긴꼬리초밥,서울특별시 강서구 공항대로 269-15 (마곡동),,126.8372563156,37.5596636302,A05,A0502,A05020300,http://tong.visitkorea.or.kr/cms/resource/78/2849678_image2_1.jpg,,일식,서울특별시,tourapi_food
2870486,39,길목,서울특별시 강남구 영동대로129길 10 (삼성동),,127.0564180465,37.5190778257,A05,A0502,A05020100,http://tong.visitkorea.or.kr/cms/resource/75/2870475_image2_1.jpg,,한식,서울특별시,tourapi_food
2869101,39,김북순큰남비집 신사본점,"서울특별시 강남구 압구정로2길 15 (신사동, 신사아이빌)",,127.0199713168,37.5207714188,A05,A0502,A05020100,http://tong.visitkorea.or.kr/cms/resource/92/2869092_image2_1.JPG,,한식,서울특별시,tourapi_food
2918773,39,김삼보김치찌개,서울특별시 서대문구 명물길 62 오시리스타워,1층,126.9396164452,37.5589849824,A05,A0502,A05020100,http://tong.visitkorea.or.kr/cms/resource/00/3580400_image2_1.jpg,,한식,서울특별시,tourapi_food
2871497,39,김수사,서울특별시 강남구 도산대로12길 7 (논현동),,127.0237710695,37.5172691162,A05,A0502,A05020300,http://tong.visitkorea.or.kr/cms/resource/82/2871482_image2_1.jpg,,일식,서울특별시,tourapi_food
2853997,39,김영섭초밥,서울특별시 마포구 월드컵북로 352-18 (상암동),,126.8933312477,37.5777125327,A05,A0502,A05020300,http://tong.visitkorea.or.kr/cms/resource/84/2853984_image2_1.jpg,,일식,서울특별시,tourapi_food
403407,39,까델루뽀,서울특별시 종로구 자하문로16길 5-5,,126.9713490183,37.5817995664,A05,A0502,A05020200,,02-734-5233,서양식,서울특별시,tourapi_food
2870271,39,까폼,서울특별시 강남구 선릉로153길 18,지하1층,127.0380140003,37.524935148,A05,A0502,A05020700,http://tong.visitkorea.or.kr/cms/resource/70/2870270_image2_1.jpg,,체험음식,서울특별시,tourapi_food
2786045,39,깔리,서울특별시 종로구 대학로11길 43,(명륜4가)171번지 2층,126.999271453,37.5825166505,A05,A0502,A05020700,http://tong.visitkorea.or.kr/cms/resource/29/2792529_image2_1.jpg,,체험음식,서울특별시,tourapi_food
2871082,39,꺼거,서울특별시 용산구 한강대로48길 10,,126.9711421239,37.5316053954,A05,A0502,A05020400,http://tong.visitkorea.or.kr/cms/resource/09/3587009_image2_1.jpg,,중식,서울특별시,tourapi_food
2851700,39,꼬숑돈까스,서울특별시 서대문구 명물1길 2,,126.9373722395,37.5577739722,A05,A0502,A05020300,,,일식,서울특별시,tourapi_food
2839004,39,꼼떼 바베큐 둔촌본점,서울특별시 강동구 동남로51길 9,,127.1496369415,37.5331334298,A05,A0502,A05020200,http://tong.visitkorea.or.kr/cms/resource/97/2838997_image2_1.jpg,,서양식,서울특별시,tourapi_food
2847862,39,꽁티드툴레아,서울특별시 강남구 도산대로49길 39,,127.0369085263,37.5256156049,A05,A0502,A05020100,http://tong.visitkorea.or.kr/cms/resource/51/2847851_image2_1.jpg,,한식,서울특별시,tourapi_food
2708791,39,"꽃,밥에피다",서울특별시 종로구 인사동16길 3-6,(관훈동),126.9840397113,37.5753422114,A05,A0502,A05020100,http://tong.visitkorea.or.kr/cms/resource/05/2705105_image2_1.jpg,,한식,서울특별시,tourapi_food
2859916,39,꾸띠자르당,서울특별시 용산구 보광로 120 (이태원동),,126.9946177098,37.5335000407,A05,A0502,A05020200,http://tong.visitkorea.or.kr/cms/resource/03/2859903_image2_1.jpg,,서양식,서울특별시,tourapi_food
2894842,39,꾸아 성수점,서울특별시 성동구 왕십리로 94-2 (성수동1가),,127.0449294351,37.5461744723,A05,A0502,A05020700,http://tong.visitkorea.or.kr/cms/resource/17/2894817_image2_1.jpg,,체험음식,서울특별시,tourapi_food
2717322,39,꾸에바마테라,서울특별시 용산구 소월로20길 28-1,(용산동2가),126.9852293414,37.5453318316,A05,A0502,A05020900,,010-9793-7999,카페·디저트,서울특별시,tourapi_food
2839528,39,꿀꿀진순대 강동본점,서울특별시 강동구 양재대로103길 70 강동아너스빌,1층,127.1342077641,37.5340358242,A05,A0502,A05020100,http://tong.visitkorea.or.kr/cms/resource/17/2839517_image2_1.jpg,,한식,서울특별시,tourapi_food
3442723,39,꿈콩카페,서울특별시 은평구 연서로50길 8 (진관동),,126.9380226193,37.6403865997,A05,A0502,A05020900,http://tong.visitkorea.or.kr/cms/resource/47/3443247_image2_1.JPG,,카페·디저트,서울특별시,tourapi_food
3094113,39,나누미떡볶이,서울특별시 종로구 성균관로 9-1 (명륜2가),,126.9979270937,37.5838331404,A05,A0502,A05020100,http://tong.visitkorea.or.kr/cms/resource/12/3094112_image2_1.jpg,,한식,서울특별시,tourapi_food
2849386,39,나리의 집,서울특별시 용산구 이태원로 245,,127.0002559896,37.5368775275,A05,A0502,A05020100,http://tong.visitkorea.or.kr/cms/resource/58/3568658_image2_1.jpg,,한식,서울특별시,tourapi_food
2788760,39,낙동강,서울특별시 중구 을지로1길 34 (다동),,126.9798764188,37.5676846934,A05,A0502,A05020100,http://tong.visitkorea.or.kr/cms/resource/20/2789520_image2_1.jpg,,한식,서울특별시,tourapi_food
2847196,39,낙산냉면,서울특별시 종로구 지봉로5길 8 (창신동),,127.0152757763,37.5745400875,A05,A0502,A05020100,http://tong.visitkorea.or.kr/cms/resource/90/2847190_image2_1.jpg,,한식,서울특별시,tourapi_food
2843520,39,난포,서울특별시 성동구 서울숲4길 18-8 (성수동1가),,127.0426907243,37.5471076572,A05,A0502,A05020100,http://tong.visitkorea.or.kr/cms/resource/15/2843515_image2_1.jpg,,한식,서울특별시,tourapi_food
232231,39,남문토방,서울특별시 중구 남대문시장길 45-3,,126.9783906441,37.560599379,A05,A0502,A05020100,http://tong.visitkorea.or.kr/cms/resource/28/3474928_image2_1.jpg,02-778-6727,한식,서울특별시,tourapi_food
135679,39,남산골산채집,서울특별시 중구 소파로 93,,126.9852040201,37.5567638358,A05,A0502,A05020100,http://tong.visitkorea.or.kr/cms/resource/43/1355543_image2_1.jpg,02-754-1978,한식,서울특별시,tourapi_food
3444607,39,남산도서관 구내식당,서울특별시 용산구 소월로 109 (후암동),1층 구내식당,126.9813656031,37.5524531569,A05,A0502,A05020100,http://tong.visitkorea.or.kr/cms/resource/49/3444449_image2_1.png,02-733-3674,한식,서울특별시,tourapi_food
2871545,39,남서울민물장어,서울특별시 강남구 봉은사로 137 (논현동),,127.0295402983,37.5063343783,A05,A0502,A05020100,http://tong.visitkorea.or.kr/cms/resource/34/2871534_image2_1.jpg,,한식,서울특별시,tourapi_food
2836064,39,남영돈,서울특별시 용산구 한강대로80길 17,,126.9737915663,37.5428013647,A05,A0502,A05020100,http://tong.visitkorea.or.kr/cms/resource/53/2836053_image2_1.jpg,,한식,서울특별시,tourapi_food
678522,39,남원황토추어탕,서울특별시 강동구 성안로 7-12,,127.1286140845,37.5250478778,A05,A0502,A05020100,http://tong.visitkorea.or.kr/cms/resource/35/3474635_image2_1.jpg,,한식,서울특별시,tourapi_food
2840211,39,남한강민물매운탕,서울특별시 광진구 동일로 150 (화양동),,127.0662247324,37.5456776907,A05,A0502,A05020100,http://tong.visitkorea.or.kr/cms/resource/07/2840207_image2_1.jpg,,한식,서울특별시,tourapi_food
2853837,39,남해바다,"서울특별시 마포구 토정로37길 46 (도화동, 정우맨션)",,126.9471967812,37.5423120561,A05,A0502,A05020300,http://tong.visitkorea.or.kr/cms/resource/27/2853827_image2_1.jpg,,일식,서울특별시,tourapi_food
2870265,39,내가국수다,서울특별시 강남구 밤고개로23길 20 (율현동),,127.1084673756,37.4736673673,A05,A0502,A05020100,http://tong.visitkorea.or.kr/cms/resource/60/2870260_image2_1.jpg,,한식,서울특별시,tourapi_food
2846604,39,내꾸미쭈꾸미,서울특별시 송파구 성내천로 106 (오금동),,127.1401026463,37.4997954604,A05,A0502,A05020100,http://tong.visitkorea.or.kr/cms/resource/92/2846592_image2_1.jpg,,한식,서울특별시,tourapi_food
2717547,39,내자상회,서울특별시 종로구 사직로10길 3,(내자동),126.9705214845,37.5758502431,A05,A0502,A05020900,http://tong.visitkorea.or.kr/cms/resource/97/2716897_image2_1.jpg,,카페·디저트,서울특별시,tourapi_food
2988399,39,널담은공간,서울특별시 종로구 삼청로 24,,126.9798483489,37.578102926,A05,A0502,A05020900,http://tong.visitkorea.or.kr/cms/resource/96/2991896_image2_1.jpeg,,카페·디저트,서울특별시,tourapi_food
2870254,39,네기다이닝라운지,서울특별시 강남구 도산대로15길 18 (신사동),,127.024054313,37.5195355246,A05,A0502,A05020300,http://tong.visitkorea.or.kr/cms/resource/46/2870246_image2_1.jpg,,일식,서울특별시,tourapi_food
2870227,39,네모집 청담점,서울특별시 강남구 선릉로148길 28 (청담동),,127.0418664921,37.5226577043,A05,A0502,A05020100,http://tong.visitkorea.or.kr/cms/resource/14/2870214_image2_1.jpg,,한식,서울특별시,tourapi_food
2871568,39,노들강본채,서울특별시 강남구 강남대로114길 21 (논현동),,127.025987845,37.5062843205,A05,A0502,A05020100,http://tong.visitkorea.or.kr/cms/resource/50/2871550_image2_1.jpg,,한식,서울특별시,tourapi_food
2870197,39,노란상 소갈비,서울특별시 강남구 선릉로131길 22 (논현동),,127.0391946569,37.5175721359,A05,A0502,A05020100,http://tong.visitkorea.or.kr/cms/resource/78/2870178_image2_1.JPG,,한식,서울특별시,tourapi_food
581825,39,노랑저고리,서울특별시 서초구 서초대로73길 9 (서초동),5층,127.0252436924,37.4983602268,A05,A0502,A05020100,,02-534-5300,한식,서울특별시,tourapi_food
2855118,39,노조미일식,서울특별시 영등포구 은행로 3 (여의도동),,126.9196802604,37.5275632774,A05,A0502,A05020300,http://tong.visitkorea.or.kr/cms/resource/09/2855109_image2_1.jpg,,일식,서울특별시,tourapi_food
1998567,39,노천파전,서울특별시 동대문구 회기로28길 3,(휘경동),127.056204948,37.5897557225,A05,A0502,A05020100,http://tong.visitkorea.or.kr/cms/resource/01/3474701_image2_1.jpg,02-968-2494,한식,서울특별시,tourapi_food
2900286,39,녹원쌈밥 연희점,서울특별시 서대문구 연희로25길 22 (연희동),,126.9341582265,37.5725360875,A05,A0502,A05020100,http://tong.visitkorea.or.kr/cms/resource/84/2900284_image2_1.jpg,,한식,서울특별시,tourapi_food
2850295,39,논밭골 봉천점,서울특별시 관악구 청룡길 30,,126.9459347493,37.4805414311,A05,A0502,A05020100,http://tong.visitkorea.or.kr/cms/resource/90/2850290_image2_1.jpg,,한식,서울특별시,tourapi_food
2752169,39,농민백암순대 본점,서울특별시 강남구 선릉로86길 40-4,,127.0530437877,37.5037600996,A05,A0502,A05020100,,,한식,서울특별시,tourapi_food
2847980,39,농부보쌈,서울특별시 중랑구 용마산로 389 (면목동),,127.0949570645,37.5865345731,A05,A0502,A05020100,http://tong.visitkorea.or.kr/cms/resource/72/2847972_image2_1.jpg,,한식,서울특별시,tourapi_food
2851970,39,뇨끼바,서울특별시 용산구 한남대로20길 41-4,1층,127.0095190865,37.5350667926,A05,A0502,A05020200,http://tong.visitkorea.or.kr/cms/resource/54/2851954_image2_1.jpg,,서양식,서울특별시,tourapi_food
2894810,39,누메로도스,서울특별시 성동구 상원1길 35-9 (성수동1가),,127.0473514302,37.5464189322,A05,A0502,A05020200,http://tong.visitkorea.or.kr/cms/resource/99/2894799_image2_1.jpg,,서양식,서울특별시,tourapi_food
2894795,39,누메로뜨레쓰,서울특별시 성동구 성수일로 21 (성수동1가),,127.0486930831,37.5425888455,A05,A0502,A05020200,http://tong.visitkorea.or.kr/cms/resource/76/2894776_image2_1.jpg,,서양식,서울특별시,tourapi_food
402976,39,뉘조,서울특별시 종로구 인사동14길 27,,126.985186834,37.5751644745,A05,A0502,A05020100,,"02-730-9311,9301",한식,서울특별시,tourapi_food
836008,39,뉴델리,서울특별시 동대문구 경희대로6길 5,,127.0531301254,37.5933719136,A05,A0502,A05020700,http://tong.visitkorea.or.kr/cms/resource/58/3577458_image2_1.jpg,02-957-7955,체험음식,서울특별시,tourapi_food
2815129,39,뉴웨이브서울,서울특별시 광진구 아차산로33길 28-10,,127.0707994273,37.5417615617,A05,A0502,A05020200,,,서양식,서울특별시,tourapi_food
2870406,39,늘복집,서울특별시 강남구 밤고개로14길 13-48 (자곡동),,127.1028205009,37.479524919,A05,A0502,A05020100,http://tong.visitkorea.or.kr/cms/resource/99/2870399_image2_1.jpg,,한식,서울특별시,tourapi_food
2842714,39,늘봄해물찜&손칼국수 답십리본점,서울특별시 동대문구 전농로 39 (답십리동),,127.0568221592,37.5686137463,A05,A0502,A05020100,http://tong.visitkorea.or.kr/cms/resource/09/2842709_image2_1.jpg,,한식,서울특별시,tourapi_food
2839940,39,늘푸른목장 잠실본점,서울특별시 송파구 백제고분로9길 34,1F,127.0826548153,37.5096321728,A05,A0502,A05020100,http://tong.visitkorea.or.kr/cms/resource/36/2839936_image2_1.jpg,,한식,서울특별시,tourapi_food
738596,39,늘푸른식당,서울특별시 마포구 굴레방로9길 3,,126.9555372771,37.5568327402,A05,A0502,A05020100,http://tong.visitkorea.or.kr/cms/resource/48/3568548_image2_1.jpg,02-362-9604,한식,서울특별시,tourapi_food
2851611,39,능이버섯백숙,서울특별시 영등포구 선유로 32,,126.8888722596,37.5168111987,A05,A0502,A05020100,http://tong.visitkorea.or.kr/cms/resource/95/2851595_image2_1.jpg,,한식,서울특별시,tourapi_food
2894763,39,니드스윗,서울특별시 성동구 아차산로1길 9,,127.0457098386,37.549043597,A05,A0502,A05020900,http://tong.visitkorea.or.kr/cms/resource/55/2894755_image2_1.jpg,,카페·디저트,서울특별시,tourapi_food
2856564,39,다 피타(Da Pitta),서울특별시 서초구 효령로 202 (서초동),,127.006434731,37.4828922412,A05,A0502,A05020200,http://tong.visitkorea.or.kr/cms/resource/60/2856560_image2_1.jpg,,서양식,서울특별시,tourapi_food
2814836,39,다과상사,서울특별시 용산구 백범로 291,,126.9617010969,37.53942654,A05,A0502,A05020900,http://tong.visitkorea.or.kr/cms/resource/76/3580476_image2_1.jpg,,카페·디저트,서울특별시,tourapi_food
2824948,39,다동 황소막창,서울특별시 중구 남대문로 60-5 (명동2가),,126.9822235678,37.5627130907,A05,A0502,A05020100,,,한식,서울특별시,tourapi_food
398346,39,다락정,서울특별시 종로구 삼청로 131-1 (삼청동),,126.9815507103,37.5873018875,A05,A0502,A05020100,,02-725-1697,한식,서울특별시,tourapi_food
2755513,39,다래함박스텍,서울특별시 강북구 수유로 20-2,(수유동),127.0190571087,37.6328278234,A05,A0502,A05020200,,,서양식,서울특별시,tourapi_food
2870174,39,다온바이뱀부,서울특별시 강남구 학동로25길 39 (논현동),,127.02776796,37.5161276537,A05,A0502,A05020100,http://tong.visitkorea.or.kr/cms/resource/63/2870163_image2_1.jpg,,한식,서울특별시,tourapi_food
2752177,39,단미그린비,서울특별시 강남구 밤고개로14길 13-50,,127.1026871842,37.4793693798,A05,A0502,A05020100,,,한식,서울특별시,tourapi_food
2851986,39,단박왕돈까스,"서울특별시 용산구 백범로90길 74 (문배동, 이안용산)",,126.9696226583,37.5372602669,A05,A0502,A05020200,http://tong.visitkorea.or.kr/cms/resource/77/2851977_image2_1.jpg,,서양식,서울특별시,tourapi_food
2852009,39,단비,서울특별시 용산구 한남대로20길 21-12 (한남동),,127.0088135891,37.5352723121,A05,A0502,A05020100,http://tong.visitkorea.or.kr/cms/resource/96/2851996_image2_1.jpg,,한식,서울특별시,tourapi_food
2870159,39,단스시,서울특별시 강남구 언주로 652 (논현동),,127.0358005892,37.5151862409,A05,A0502,A05020300,http://tong.visitkorea.or.kr/cms/resource/44/2870144_image2_1.jpg,,일식,서울특별시,tourapi_food
2854383,39,단아,서울특별시 영등포구 여의대방로67길 21 정곡빌딩,,126.9294934507,37.5206059278,A05,A0502,A05020100,http://tong.visitkorea.or.kr/cms/resource/69/2854369_image2_1.jpg,,한식,서울특별시,tourapi_food
2894747,39,단일서울,서울특별시 성동구 왕십리로 66-33 (성수동1가),,127.0455155806,37.5430859525,A05,A0502,A05020900,http://tong.visitkorea.or.kr/cms/resource/34/2894734_image2_1.jpg,,카페·디저트,서울특별시,tourapi_food
2849290,39,달마시안,서울특별시 강남구 압구정로42길 42,,127.0345420549,37.5263238132,A05,A0502,A05020200,http://tong.visitkorea.or.kr/cms/resource/77/2849277_image2_1.jpg,,서양식,서울특별시,tourapi_food
2873449,39,닭내장집,서울특별시 서대문구 수색로 28-5,,126.9156322234,37.5695111074,A05,A0502,A05020100,http://tong.visitkorea.or.kr/cms/resource/33/3576333_image2_1.jpg,,한식,서울특별시,tourapi_food
2870139,39,닭으로가 압구정본점,서울특별시 강남구 언주로172길 55,,127.0384194597,37.5270376893,A05,A0502,A05020100,http://tong.visitkorea.or.kr/cms/resource/24/2870124_image2_1.jpg,,한식,서울특별시,tourapi_food
2833427,39,닭한마리 공릉본점,서울특별시 노원구 동일로 1020 공릉본점닭한마리,,127.0748301314,37.6212551745,A05,A0502,A05020100,http://tong.visitkorea.or.kr/cms/resource/08/2833408_image2_1.jpg,,한식,서울특별시,tourapi_food
2653729,39,닭한마리돼지한근,서울특별시 중구 동호로24길 33,,127.0052131937,37.5608026145,A05,A0502,A05020100,http://tong.visitkorea.or.kr/cms/resource/36/2655236_image2_1.jpg,02-2285-5988,한식,서울특별시,tourapi_food
2843041,39,담은갈비,"서울특별시 송파구 삼전로 93 (잠실동, 태정빌딩(잠실동 다세대주택))",,127.0896209258,37.5069020593,A05,A0502,A05020100,http://tong.visitkorea.or.kr/cms/resource/28/2843028_image2_1.jpg,,한식,서울특별시,tourapi_food
2854402,39,당산오돌 본점,서울특별시 영등포구 국회대로37길 6 (당산동4가),,126.8998320674,37.5276156945,A05,A0502,A05020100,http://tong.visitkorea.or.kr/cms/resource/93/2854393_image2_1.jpg,,한식,서울특별시,tourapi_food
2870120,39,대가방 본점,"서울특별시 강남구 봉은사로 333 (논현동, 선정릉역 모아엘가 퍼스트 홈)",,127.0430806123,37.5105785734,A05,A0502,A05020400,http://tong.visitkorea.or.kr/cms/resource/16/2870116_image2_1.jpg,,중식,서울특별시,tourapi_food
2840217,39,대가식당,서울특별시 광진구 광나루로 596 (구의동),,127.0943861597,37.5420841713,A05,A0502,A05020100,http://tong.visitkorea.or.kr/cms/resource/16/2840216_image2_1.jpg,,한식,서울특별시,tourapi_food
2870077,39,대가원 본점,서울특별시 강남구 언주로130길 8 (논현동),,127.0361394589,37.5147696287,A05,A0502,A05020100,http://tong.visitkorea.or.kr/cms/resource/74/2870074_image2_1.JPG,,한식,서울특별시,tourapi_food
2894854,39,대돈집,서울특별시 성동구 왕십리로14길 18 뚝섬영재어린이집,1층,127.0456154132,37.5486714162,A05,A0502,A05020100,http://tong.visitkorea.or.kr/cms/resource/33/2894833_image2_1.jpg,,한식,서울특별시,tourapi_food
135114,39,대문점,서울특별시 영등포구 영중로10길 30,,126.908556527,37.5185918989,A05,A0502,A05020400,,02-2678-3256,중식,서울특별시,tourapi_food
232241,39,대문한정식,서울특별시 도봉구 시루봉로 139-6,,127.0275415665,37.6636966089,A05,A0502,A05020100,,02-956-0843,한식,서울특별시,tourapi_food
2834736,39,대보명가,서울특별시 강북구 4.19로 69,,127.0071328288,37.6457344413,A05,A0502,A05020100,http://tong.visitkorea.or.kr/cms/resource/09/2834709_image2_1.jpg,,한식,서울특별시,tourapi_food
2843503,39,대성갈비,서울특별시 성동구 상원1길 26 (성수동1가),서울숲 A타워 101호~103호,127.0484485572,37.546246749,A05,A0502,A05020100,,,한식,서울특별시,tourapi_food
2360783,39,대장금,서울특별시 송파구 올림픽로 300 (신천동),캐주얼동 5층,127.1040749597,37.5141653654,A05,A0502,A05020100,,02-3213-4534,한식,서울특별시,tourapi_food
2850183,39,대한옥,서울특별시 영등포구 영등포로51길 6 (영등포동2가),,126.9108951791,37.5194140671,A05,A0502,A05020100,http://tong.visitkorea.or.kr/cms/resource/70/2850170_image2_1.jpg,,한식,서울특별시,tourapi_food
3453614,39,대한제빵소,서울특별시 마포구 월드컵북로 402 (상암동),,126.8890565676,37.5801982781,A05,A0502,A05020700,http://tong.visitkorea.or.kr/cms/resource/18/3453518_image2_1.JPG,,체험음식,서울특별시,tourapi_food
2899012,39,대흥정육식당,"서울특별시 성동구 왕십리로 16 (성수동1가, 트리마제)",,127.0439852779,37.539100277,A05,A0502,A05020100,http://tong.visitkorea.or.kr/cms/resource/97/2898997_image2_1.jpg,,한식,서울특별시,tourapi_food
2859951,39,댓잎갈비 본점,서울특별시 용산구 서빙고로91길 2 댓잎갈비,,127.001842298,37.5247984033,A05,A0502,A05020100,http://tong.visitkorea.or.kr/cms/resource/02/3577002_image2_1.jpg,,한식,서울특별시,tourapi_food
2786072,39,더 스팟 패뷸러스,서울특별시 중구 명동2길 22 (명동2가),,126.982615208,37.5623853579,A05,A0502,A05020900,http://tong.visitkorea.or.kr/cms/resource/38/2792538_image2_1.jpg,,카페·디저트,서울특별시,tourapi_food
2654150,39,더라운지 JW메리어트동대문스퀘어서울,"서울특별시 종로구 청계천로 279, JW메리어트동대문스퀘어서울 1층",,127.0087987073,37.5703710113,A05,A0502,A05020200,http://tong.visitkorea.or.kr/cms/resource/96/2655196_image2_1.jpg,02-2276-3336,서양식,서울특별시,tourapi_food
2835826,39,더아너스,서울특별시 중랑구 망우로 353 상봉 프레미어스 엠코,C동 지하1층,127.0913376195,37.5981387149,A05,A0502,A05020100,http://tong.visitkorea.or.kr/cms/resource/13/2835813_image2_1.jpg,,한식,서울특별시,tourapi_food
3446219,39,더웍,"서울특별시 성북구 길음로 11 (길음동, 길음역롯데캐슬트윈골드아파트)",롯데캐슬 골드 트윈상가 지하1층,127.0234880845,37.6038534948,A05,A0502,A05020400,,,중식,서울특별시,tourapi_food
2870024,39,더원 레스토랑,서울특별시 강남구 영동대로 648 (삼성동),,127.0576901262,37.5200388484,A05,A0502,A05020400,http://tong.visitkorea.or.kr/cms/resource/07/2870007_image2_1.JPG,,중식,서울특별시,tourapi_food
2848075,39,더코너키친,서울특별시 종로구 평창문화로 98 (평창동),,126.9719426906,37.6071410749,A05,A0502,A05020200,http://tong.visitkorea.or.kr/cms/resource/71/2848071_image2_1.jpg,,서양식,서울특별시,tourapi_food
2733974,39,더클래스 청담,서울특별시 강남구 압구정로60길 17-5,(청담동),127.0422913531,37.5261878572,A05,A0502,A05020700,http://tong.visitkorea.or.kr/cms/resource/98/2779098_image2_1.png,,체험음식,서울특별시,tourapi_food
135683,39,더플레이스다이닝,서울특별시 용산구 남산공원길 105,,126.9878983791,37.5511089858,A05,A0502,A05020200,,02-3455-9220,서양식,서울특별시,tourapi_food
2834955,39,더한강,서울특별시 동작구 노량진로32길 29-6,,126.9569939562,37.5123684883,A05,A0502,A05020900,http://tong.visitkorea.or.kr/cms/resource/33/2834933_image2_1.jpg,,카페·디저트,서울특별시,tourapi_food
2847839,39,덕승재 상암본점,서울특별시 마포구 월드컵북로 361 (상암동),,126.8914258814,37.5771597852,A05,A0502,A05020100,http://tong.visitkorea.or.kr/cms/resource/27/2847827_image2_1.jpg,,한식,서울특별시,tourapi_food
2854372,39,덕후선생,서울특별시 강남구 선릉로 822 (청담동),5층,127.0401887917,37.5253101437,A05,A0502,A05020400,http://tong.visitkorea.or.kr/cms/resource/54/2854354_image2_1.jpg,,중식,서울특별시,tourapi_food
3443159,39,도락,서울특별시 마포구 월드컵북로54길 17 (상암동),지하 1층 B-132A 도락,126.8885621347,37.5813786875,A05,A0502,A05020100,http://tong.visitkorea.or.kr/cms/resource/61/3442861_image2_1.JPG,,한식,서울특별시,tourapi_food
2832791,39,도봉산양고기,서울특별시 도봉구 도봉로191길 99-6 (도봉동),,127.0417561863,37.6899771406,A05,A0502,A05020100,http://tong.visitkorea.or.kr/cms/resource/86/2832786_image2_1.jpg,,한식,서울특별시,tourapi_food
2894932,39,도쎄멕시칸,서울특별시 성동구 왕십리로 58 (성수동1가),,127.0452211721,37.5427498754,A05,A0502,A05020200,http://tong.visitkorea.or.kr/cms/resource/19/2894919_image2_1.jpg,,서양식,서울특별시,tourapi_food
2642683,39,도원마산아구찜,서울특별시 종로구 삼일대로 438,1층,126.9879366209,37.573845233,A05,A0502,A05020100,http://tong.visitkorea.or.kr/cms/resource/85/2668185_image2_1.jpg,02-765-4009,한식,서울특별시,tourapi_food
2623110,39,도원스타일,서울특별시 강남구 압구정로 165,,127.0274843337,37.5274180039,A05,A0502,A05020400,,,중식,서울특별시,tourapi_food
2834380,39,도원한우,서울특별시 강동구 진황도로 227 하선빌딩,1층,127.1450153311,37.5264091268,A05,A0502,A05020100,http://tong.visitkorea.or.kr/cms/resource/70/2834370_image2_1.jpg,,한식,서울특별시,tourapi_food
835984,39,도읍지,서울특별시 동대문구 회기로21길 38-1,,127.0530968038,37.5930552828,A05,A0502,A05020100,http://tong.visitkorea.or.kr/cms/resource/11/3474711_image2_1.jpg,02-964-2388,한식,서울특별시,tourapi_food
678899,39,도일처,서울특별시 강서구 개화동로 567,(방화동),126.8077561621,37.5620544928,A05,A0502,A05020400,http://tong.visitkorea.or.kr/cms/resource/37/2685037_image2_1.jpg,,중식,서울특별시,tourapi_food
3551135,39,도정육관,서울특별시 서초구 서초대로78길 42 (서초동),,127.0282407632,37.4940774451,A05,A0502,A05020100,http://tong.visitkorea.or.kr/cms/resource/28/3551128_image2_1.jpg,,한식,서울특별시,tourapi_food
2843075,39,돈까스의집,서울특별시 송파구 삼전로 100 (삼전동),,127.0906986015,37.5070159544,A05,A0502,A05020200,http://tong.visitkorea.or.kr/cms/resource/62/2843062_image2_1.jpg,,서양식,서울특별시,tourapi_food
2837902,39,돈까스잔치 동빙고점,서울특별시 용산구 서빙고로 297,,126.9964290009,37.5213070453,A05,A0502,A05020100,http://tong.visitkorea.or.kr/cms/resource/00/2837900_image2_1.jpg,,한식,서울특별시,tourapi_food
2844953,39,돈족골,서울특별시 송파구 삼학사로 66 (석촌동),,127.0974536533,37.5031415259,A05,A0502,A05020100,http://tong.visitkorea.or.kr/cms/resource/51/2844951_image2_1.jpg,,한식,서울특별시,tourapi_food
2789182,39,동경우동,서울특별시 종로구 새문안로9길 28 (도렴동),,126.9757044705,37.5714341825,A05,A0502,A05020300,http://tong.visitkorea.or.kr/cms/resource/14/2789814_image2_1.jpg,,일식,서울특별시,tourapi_food
2856611,39,동달식당 강남본점,서울특별시 서초구 서운로 133 (서초동),,127.0247327106,37.4954272255,A05,A0502,A05020100,http://tong.visitkorea.or.kr/cms/resource/93/2856593_image2_1.jpg,,한식,서울특별시,tourapi_food
2849404,39,동빙고 본점,서울특별시 용산구 이촌로 319 현대아파트,,126.9823414879,37.5180155081,A05,A0502,A05020900,http://tong.visitkorea.or.kr/cms/resource/95/2849395_image2_1.jpg,,카페·디저트,서울특별시,tourapi_food
2839112,39,동우설렁탕 본점,서울특별시 성북구 개운사길 45,,127.0290796795,37.5884526077,A05,A0502,A05020100,http://tong.visitkorea.or.kr/cms/resource/99/2839099_image2_1.jpg,,한식,서울특별시,tourapi_food
3094599,39,동원집,서울특별시 중구 퇴계로27길 48 (초동),,126.9913616044,37.5633937314,A05,A0502,A05020100,http://tong.visitkorea.or.kr/cms/resource/97/3094597_image2_1.JPG,,한식,서울특별시,tourapi_food
2784696,39,동작구름카페,서울특별시 서초구 동작대로 350,(반포동),126.9811002794,37.5058141254,A05,A0502,A05020900,http://tong.visitkorea.or.kr/cms/resource/99/2784699_image2_1.png,,카페·디저트,서울특별시,tourapi_food
2763751,39,동작노을카페,서울특별시 동작구 동작대로 335 (동작동),,126.9800614768,37.5060890748,A05,A0502,A05020900,,,카페·디저트,서울특별시,tourapi_food
2842634,39,동적깡통구이 쌍문본점,서울특별시 도봉구 도봉로109길 30 (쌍문동),,127.031702771,37.647109724,A05,A0502,A05020100,http://tong.visitkorea.or.kr/cms/resource/25/2842625_image2_1.jpg,,한식,서울특별시,tourapi_food
2848967,39,동촌 보리밥과 돈까스,서울특별시 송파구 거마로 22,,127.145516177,37.4950544417,A05,A0502,A05020100,http://tong.visitkorea.or.kr/cms/resource/08/2848608_image2_1.jpg,,한식,서울특별시,tourapi_food
2788820,39,동해도 광화문,서울특별시 중구 무교로 28 (무교동),,126.9795986426,37.5685207019,A05,A0502,A05020300,http://tong.visitkorea.or.kr/cms/resource/32/2789532_image2_1.jpg,,일식,서울특별시,tourapi_food
2850152,39,동해도 본점,서울특별시 영등포구 은행로 25 (여의도동),,126.9213967368,37.5287492815,A05,A0502,A05020300,http://tong.visitkorea.or.kr/cms/resource/33/2850133_image2_1.jpg,,일식,서울특별시,tourapi_food
679654,39,동흥관,서울특별시 금천구 시흥대로63길 20,,126.8964843292,37.4580181632,A05,A0502,A05020400,,02-803-3759,중식,서울특별시,tourapi_food
2752546,39,돝고기506,서울특별시 강남구 테헤란로 145 (역삼동),지하 1층,127.0352010518,37.5007629048,A05,A0502,A05020100,http://tong.visitkorea.or.kr/cms/resource/98/3531198_image2_1.jpg,,한식,서울특별시,tourapi_food
2789169,39,된장예술과술,서울특별시 종로구 삼일대로15길 20,(관철동),126.9864091204,37.5689735496,A05,A0502,A05020100,http://tong.visitkorea.or.kr/cms/resource/21/2789821_image2_1.jpg,,한식,서울특별시,tourapi_food
562425,39,두가헌 레스토랑,서울특별시 종로구 삼청로 14,,126.9798039302,37.5773002409,A05,A0502,A05020200,,02-3210-2100,서양식,서울특별시,tourapi_food
2814408,39,두레유,서울특별시 종로구 평창문화로 84 (평창동),2층,126.970517835,37.6066216653,A05,A0502,A05020100,http://tong.visitkorea.or.kr/cms/resource/59/3579259_image2_1.jpg,,한식,서울특별시,tourapi_food
403509,39,두에꼬제,"서울특별시 용산구 한남대로 60 (한남동, 금호리첸시아)",상가 D동 119호,127.0079497995,37.5345362705,A05,A0502,A05020200,http://tong.visitkorea.or.kr/cms/resource/78/3575178_image2_1.jpg,02-795-1405,서양식,서울특별시,tourapi_food
2774271,39,뒤뜰,서울특별시 구로구 안양천로539길 6 (고척동),,126.8705548127,37.5051288955,A05,A0502,A05020100,http://tong.visitkorea.or.kr/cms/resource/70/2779670_image2_1.jpg,,한식,서울특별시,tourapi_food
134793,39,드럼통 참숯석쇠구이,서울특별시 송파구 삼학사로19길 3 (삼전동),,127.0965869906,37.5057550957,A05,A0502,A05020100,http://tong.visitkorea.or.kr/cms/resource/39/3569439_image2_1.jpg,02-416-4555,한식,서울특별시,tourapi_food
2764171,39,등나무집,서울특별시 동작구 대림로 52,(신대방동),126.9079852112,37.4882204166,A05,A0502,A05020100,,,한식,서울특별시,tourapi_food
2853910,39,디라이프스타일키친 광화문점,서울특별시 중구 세종대로 136 파이낸스빌딩,파이낸스빌딩SFC몰 지하1층 101A호,126.9782987614,37.5685067916,A05,A0502,A05020200,http://tong.visitkorea.or.kr/cms/resource/04/2853904_image2_1.jpg,,서양식,서울특별시,tourapi_food
2850269,39,디자이너리 카페,서울특별시 관악구 관천로 71-1 (신림동),,126.9241282724,37.4851155095,A05,A0502,A05020900,http://tong.visitkorea.or.kr/cms/resource/63/2850263_image2_1.jpg,,카페·디저트,서울특별시,tourapi_food
2839542,39,디자인카페허브,서울특별시 강동구 천호대로200길 15-16,,127.1504006777,37.5360553267,A05,A0502,A05020900,http://tong.visitkorea.or.kr/cms/resource/34/2839534_image2_1.jpg,,카페·디저트,서울특별시,tourapi_food
2856638,39,디토,서울특별시 서초구 명달로 94 (서초동),,127.0043487294,37.4857363185,A05,A0502,A05020200,http://tong.visitkorea.or.kr/cms/resource/30/2856630_image2_1.jpg,,서양식,서울특별시,tourapi_food
2907163,39,딥커피,서울특별시 마포구 동교로 209 (동교동),,126.9233596001,37.5587736048,A05,A0502,A05020900,http://tong.visitkorea.or.kr/cms/resource/47/2907147_image2_1.jpg,,카페·디저트,서울특별시,tourapi_food
2845040,39,땅코참숯구이 본점,서울특별시 성동구 행당로17길 26 (행당동),,127.0330439935,37.5607364558,A05,A0502,A05020100,http://tong.visitkorea.or.kr/cms/resource/23/2845023_image2_1.jpg,,한식,서울특별시,tourapi_food
2900452,39,땡스오트 연남,서울특별시 마포구 성미산로23길 68 (연남동),,126.9199124789,37.5663254437,A05,A0502,A05020900,http://tong.visitkorea.or.kr/cms/resource/50/2900450_image2_1.jpg,,카페·디저트,서울특별시,tourapi_food
2836227,39,또순이네집,서울특별시 영등포구 선유로47길 16 (양평동4가),,126.8954016819,37.5359285378,A05,A0502,A05020100,http://tong.visitkorea.or.kr/cms/resource/17/2836217_image2_1.jpg,,한식,서울특별시,tourapi_food
398356,39,또순이원조순대,서울특별시 관악구 신림로59길 14,,126.9287890094,37.4833519091,A05,A0502,A05020100,,,한식,서울특별시,tourapi_food
2900649,39,뚝도지기,서울특별시 성동구 성수이로 30-4 (성수동2가),,127.0546426744,37.5379061629,A05,A0502,A05020100,http://tong.visitkorea.or.kr/cms/resource/28/2900628_image2_1.jpg,,한식,서울특별시,tourapi_food
2845699,39,뜨락,서울특별시 강남구 영동대로142길 13-3 (청담동),,127.0555679713,37.524466074,A05,A0502,A05020100,http://tong.visitkorea.or.kr/cms/resource/92/2845692_image2_1.jpg,,한식,서울특별시,tourapi_food
2782900,39,띠아낭,서울특별시 강서구 화곡로64길 72,(등촌동),126.85690185,37.5559616332,A05,A0502,A05020700,http://tong.visitkorea.or.kr/cms/resource/00/2788100_image2_1.jpg,,체험음식,서울특별시,tourapi_food
402926,39,라 쿠치나,서울특별시 용산구 회나무로44길 10 라쿠치나,,126.9964728955,37.5406020271,A05,A0502,A05020200,,02-794-6006,서양식,서울특별시,tourapi_food
2853574,39,라메흐꺄도,서울특별시 영등포구 선유로17길 24 (문래동6가),,126.8870500801,37.5211801026,A05,A0502,A05020100,http://tong.visitkorea.or.kr/cms/resource/63/2853563_image2_1.jpg,,한식,서울특별시,tourapi_food
2853819,39,라멘트럭 상수본점,서울특별시 마포구 독막로14길 31 (상수동),,126.9226183177,37.5475526741,A05,A0502,A05020300,http://tong.visitkorea.or.kr/cms/resource/04/2853804_image2_1.jpg,,일식,서울특별시,tourapi_food
2654151,39,라세느 롯데호텔서울,서울특별시 중구 을지로 30,,126.9816346542,37.565479425,A05,A0502,A05020200,http://tong.visitkorea.or.kr/cms/resource/06/2655206_image2_1.jpg,02-317-7171,서양식,서울특별시,tourapi_food
2900624,39,라온석갈비,서울특별시 성동구 성수이로 119 (성수동2가),,127.0571616658,37.5457858482,A05,A0502,A05020100,http://tong.visitkorea.or.kr/cms/resource/11/2900611_image2_1.jpg,,한식,서울특별시,tourapi_food
3354907,39,라운드앤드,서울특별시 중구 정동길 35 (정동),,126.9723827022,37.5661041865,A05,A0502,A05020900,http://tong.visitkorea.or.kr/cms/resource/64/3427964_image2_1.jpg,,카페·디저트,서울특별시,tourapi_food
836324,39,라칸티나,서울특별시 중구 을지로 19 (을지로1가),지하1층,126.9799708922,37.566359849,A05,A0502,A05020200,,02-777-2579,서양식,서울특별시,tourapi_food
3452316,39,라코펠라,서울특별시 강서구 마곡중앙로 136 (마곡동),( LG아트센터 서울 및 LG디스커버리랩 서울) 2층,126.8294429794,37.5653406087,A05,A0502,A05020900,http://tong.visitkorea.or.kr/cms/resource/22/3452222_image2_1.JPEG,,카페·디저트,서울특별시,tourapi_food
2851644,39,라크라센타,서울특별시 영등포구 문래로 92-5,,126.8922135621,37.5189360109,A05,A0502,A05020900,http://tong.visitkorea.or.kr/cms/resource/27/2851627_image2_1.jpg,,카페·디저트,서울특별시,tourapi_food
2895139,39,라프레플루트,서울특별시 성동구 서울숲2길 8-8,2층,127.0394576794,37.5473047981,A05,A0502,A05020900,http://tong.visitkorea.or.kr/cms/resource/38/2894938_image2_1.JPG,,카페·디저트,서울특별시,tourapi_food
2914252,39,락희안 가좌본점,서울특별시 서대문구 가재울로4길 53 (남가좌동),,126.9241840333,37.5761521554,A05,A0502,A05020400,http://tong.visitkorea.or.kr/cms/resource/45/2914245_image2_1.jpg,,중식,서울특별시,tourapi_food
2900435,39,락희옥 마포본점,"서울특별시 마포구 백범로 170 (공덕동, 공덕더샵아파트)",,126.9492243099,37.5445840502,A05,A0502,A05020100,http://tong.visitkorea.or.kr/cms/resource/31/2900431_image2_1.jpg,,한식,서울특별시,tourapi_food
2733858,39,램랜드,서울특별시 마포구 토정로 255,(용강동),126.9388919493,37.5434895483,A05,A0502,A05020400,http://tong.visitkorea.or.kr/cms/resource/21/2786821_image2_1.jpg,,중식,서울특별시,tourapi_food
2849387,39,러반로제 레스토랑,서울특별시 송파구 석촌호수로 274 (송파동),,127.1062304296,37.5102797443,A05,A0502,A05020200,,,서양식,서울특별시,tourapi_food
2900599,39,러프러프,서울특별시 성동구 연무장길 81 남경빌딩,401호,127.0582811222,37.5417613364,A05,A0502,A05020900,http://tong.visitkorea.or.kr/cms/resource/86/2900586_image2_1.jpg,,카페·디저트,서울특별시,tourapi_food
2809117,39,런던베이글뮤지엄 안국,서울특별시 종로구 북촌로4길 20 (계동),,126.9862171806,37.5792251324,A05,A0502,A05020900,http://tong.visitkorea.or.kr/cms/resource/50/3563950_image2_1.jpg,,카페·디저트,서울특별시,tourapi_food
2870000,39,레드마블하우스,서울특별시 강남구 논현로 408 (역삼동),,127.0391841373,37.4967190011,A05,A0502,A05020100,http://tong.visitkorea.or.kr/cms/resource/93/2869993_image2_1.jpg,,한식,서울특별시,tourapi_food
2869691,39,레스쁘아,서울특별시 강남구 도산대로59길 16 (청담동),,127.0424080481,37.5248296839,A05,A0502,A05020200,http://tong.visitkorea.or.kr/cms/resource/77/2869677_image2_1.jpg,,서양식,서울특별시,tourapi_food
2900554,39,레이더,서울특별시 성동구 연무장길 39-29,,127.054039788,37.5436693715,A05,A0502,A05020900,http://tong.visitkorea.or.kr/cms/resource/36/2900536_image2_1.jpg,,카페·디저트,서울특별시,tourapi_food
2996458,39,레인리포트 경리단,서울특별시 용산구 소월로40길 85 (이태원동),,126.9936870039,37.5418268348,A05,A0502,A05020900,,,카페·디저트,서울특별시,tourapi_food
403024,39,로씨니,서울특별시 종로구 북촌로 18 (재동),,126.9858672342,37.5784557709,A05,A0502,A05020200,,02-766-8771,서양식,서울특별시,tourapi_food
2846959,39,로얄 라운지 다이닝,서울특별시 강남구 논현로 709 (논현동),,127.0298233511,37.5153416703,A05,A0502,A05020200,http://tong.visitkorea.or.kr/cms/resource/47/2846947_image2_1.jpg,,서양식,서울특별시,tourapi_food
2856645,39,로얄맨션,서울특별시 서초구 사평대로22길 9 (반포동),,126.9978128312,37.4992568527,A05,A0502,A05020200,http://tong.visitkorea.or.kr/cms/resource/40/2856640_image2_1.jpg,,서양식,서울특별시,tourapi_food
2895111,39,로와이드(LOWIDE),서울특별시 성동구 서울숲2길 22-1 (성수동1가),,127.0410603197,37.5469937522,A05,A0502,A05020900,http://tong.visitkorea.or.kr/cms/resource/03/2895103_image2_1.JPG,,카페·디저트,서울특별시,tourapi_food
2900494,39,로우키,서울특별시 성동구 연무장3길 6 (성수동2가),,127.0515927719,37.5442525932,A05,A0502,A05020900,http://tong.visitkorea.or.kr/cms/resource/76/2900476_image2_1.jpg,,카페·디저트,서울특별시,tourapi_food
2914179,39,로이터 커피 셸터,서울특별시 중구 필동로 53 (필동3가),,126.995930819,37.5568140223,A05,A0502,A05020900,http://tong.visitkorea.or.kr/cms/resource/74/2914174_image2_1.jpg,,카페·디저트,서울특별시,tourapi_food
2855483,39,로코스 비비큐 경리단길본점,서울특별시 용산구 회나무로 83 (이태원동),,126.9955535221,37.541038071,A05,A0502,A05020200,http://tong.visitkorea.or.kr/cms/resource/64/2855464_image2_1.jpg,,서양식,서울특별시,tourapi_food
2895179,39,록멘,서울특별시 성동구 성수일로3길 2 (성수동1가),,127.0485653291,37.5421611148,A05,A0502,A05020300,http://tong.visitkorea.or.kr/cms/resource/47/2895147_image2_1.jpg,,일식,서울특별시,tourapi_food
2731162,39,루비떡볶이,서울특별시 강남구 선릉로153길 21,1층,127.0376640392,37.5246851709,A05,A0502,A05020100,,,한식,서울특별시,tourapi_food
2602869,39,루위,서울특별시 강남구 도산대로 211 (신사동),,127.0297093227,37.5206382758,A05,A0502,A05020400,http://tong.visitkorea.or.kr/cms/resource/70/2602870_image2_1.jpg,,중식,서울특별시,tourapi_food
2900407,39,루프,서울특별시 성동구 연무장5길 9-13,1층,127.0524538036,37.5442831609,A05,A0502,A05020900,http://tong.visitkorea.or.kr/cms/resource/95/2900395_image2_1.jpg,,카페·디저트,서울특별시,tourapi_food
2783403,39,르몽블랑,서울특별시 용산구 신흥로 99-4,(용산동2가),126.984859941,37.5449652004,A05,A0502,A05020900,http://tong.visitkorea.or.kr/cms/resource/11/3587011_image2_1.jpg,,카페·디저트,서울특별시,tourapi_food
2867189,39,르브런쉭 신사점,"서울특별시 강남구 강남대로162길 41-22 (신사동, 오로라빌)",,127.0210822885,37.5221240595,A05,A0502,A05020200,http://tong.visitkorea.or.kr/cms/resource/73/2867173_image2_1.jpg,,서양식,서울특별시,tourapi_food
2856652,39,르지우,서울특별시 서초구 사평대로26길 40 (반포동),,126.9989349762,37.498373643,A05,A0502,A05020200,http://tong.visitkorea.or.kr/cms/resource/49/2856649_image2_1.jpg,,서양식,서울특별시,tourapi_food
2778821,39,르프리크,서울특별시 성동구 연무장5길 9-16,블루스톤타워 B103,127.0526732224,37.5444914739,A05,A0502,A05020200,http://tong.visitkorea.or.kr/cms/resource/40/3576240_image2_1.jpg,,서양식,서울특별시,tourapi_food
2757730,39,르한스,서울특별시 성북구 정릉로10길 127,(정릉동),126.9985375715,37.6041863408,A05,A0502,A05020200,,,서양식,서울특별시,tourapi_food
2899048,39,리브나 다이닝,서울특별시 성동구 뚝섬로 366-46 (성수동1가),,127.0508513013,37.5397197729,A05,A0502,A05020200,http://tong.visitkorea.or.kr/cms/resource/37/2899037_image2_1.jpg,,서양식,서울특별시,tourapi_food
2869105,39,리애,서울특별시 강남구 선릉로16길 6,1층,127.0601075967,37.4838569819,A05,A0502,A05020300,http://tong.visitkorea.or.kr/cms/resource/06/2869106_image2_1.JPG,,일식,서울특별시,tourapi_food
2895210,39,리커버리커피바,서울특별시 성동구 왕십리로16가길 10 (성수동1가),,127.0448709877,37.5503906482,A05,A0502,A05020900,http://tong.visitkorea.or.kr/cms/resource/95/2895195_image2_1.jpg,,카페·디저트,서울특별시,tourapi_food
3458629,39,리코,서울특별시 강북구 도봉로68길 36 (미아동),,127.0264453642,37.6313947898,A05,A0502,A05020900,http://tong.visitkorea.or.kr/cms/resource/00/3458600_image2_1.jpg,,카페·디저트,서울특별시,tourapi_food
2900388,39,리틀포레스트,서울특별시 성동구 성수일로12길 23 (성수동2가),,127.0537230167,37.5483604874,A05,A0502,A05020200,http://tong.visitkorea.or.kr/cms/resource/75/2900375_image2_1.jpg,,서양식,서울특별시,tourapi_food
2535556,39,린스시,서울특별시 서초구 반포대로12길 10,,127.0119369587,37.4846115843,A05,A0502,A05020300,http://tong.visitkorea.or.kr/cms/resource/52/2535552_image2_1.jpg,0507-1456-9893,일식,서울특별시,tourapi_food
2849691,39,마곡오리,서울특별시 강서구 양천로30길 11 (마곡동),,126.8228933688,37.5727424089,A05,A0502,A05020100,http://tong.visitkorea.or.kr/cms/resource/90/2849690_image2_1.jpg,,한식,서울특별시,tourapi_food
2856413,39,마구로센 한남점,서울특별시 용산구 대사관로31길 24 (한남동),,127.006061087,37.5343918088,A05,A0502,A05020300,http://tong.visitkorea.or.kr/cms/resource/37/3572037_image2_1.jpg,,일식,서울특별시,tourapi_food
2869969,39,마누테라스,서울특별시 강남구 양재천로 179 (도곡동),,127.0455867406,37.4822819033,A05,A0502,A05020200,http://tong.visitkorea.or.kr/cms/resource/54/2869954_image2_1.jpg,,서양식,서울특별시,tourapi_food
2839559,39,마드레,서울특별시 강동구 동남로 710 (둔촌동),,127.1524004597,37.5373191045,A05,A0502,A05020100,http://tong.visitkorea.or.kr/cms/resource/52/2839552_image2_1.jpg,,한식,서울특별시,tourapi_food
2900364,39,마를리,서울특별시 성동구 연무장길 47 (성수동2가),,127.0547508574,37.5428528123,A05,A0502,A05020900,http://tong.visitkorea.or.kr/cms/resource/45/2900345_image2_1.jpg,,카페·디저트,서울특별시,tourapi_food
2827892,39,마리오네,서울특별시 성동구 성수이로12길 15,,127.0569229685,37.5397948735,A05,A0502,A05020200,,,서양식,서울특별시,tourapi_food
2853937,39,마복림할머니 막내아들네,서울특별시 중구 다산로 221 (신당동),,127.0151038977,37.5629747614,A05,A0502,A05020100,http://tong.visitkorea.or.kr/cms/resource/34/2853934_image2_1.jpg,,한식,서울특별시,tourapi_food
2849708,39,마부자생삼겹살,서울특별시 강서구 마곡중앙5로 6 (마곡동),,126.826970926,37.5673431093,A05,A0502,A05020100,http://tong.visitkorea.or.kr/cms/resource/04/2849704_image2_1.jpg,,한식,서울특별시,tourapi_food
2810010,39,마얘(MAILLET),서울특별시 서초구 사평대로22길 14 (반포동),,126.9976184113,37.4990096559,A05,A0502,A05020900,http://tong.visitkorea.or.kr/cms/resource/83/2809083_image2_1.jpg,,카페·디저트,서울특별시,tourapi_food
2867216,39,마오 청담동점,서울특별시 강남구 도산대로56길 17 (청담동),,127.0405582959,37.5220299758,A05,A0502,A05020400,http://tong.visitkorea.or.kr/cms/resource/13/2867213_image2_1.JPG,,중식,서울특별시,tourapi_food
2946087,39,마우스래빗,서울특별시 광진구 능동로11길 10 (화양동),,127.0709188521,37.5420531964,A05,A0502,A05020900,http://tong.visitkorea.or.kr/cms/resource/16/2947416_image2_1.jpg,,카페·디저트,서울특별시,tourapi_food
2905552,39,마이시크릿덴,서울특별시 중구 덕수궁길 9,401호,126.9762407191,37.5648544009,A05,A0502,A05020900,,,카페·디저트,서울특별시,tourapi_food
2848063,39,마이클 바이 해비치,서울특별시 종로구 우정국로 26,,126.9836731855,37.5715509786,A05,A0502,A05020200,http://tong.visitkorea.or.kr/cms/resource/61/2848061_image2_1.jpg,,서양식,서울특별시,tourapi_food
2867252,39,마일스톤 커피,서울특별시 강남구 논현로159길 49 (신사동),,127.0243514413,37.521896367,A05,A0502,A05020900,http://tong.visitkorea.or.kr/cms/resource/35/2867235_image2_1.JPG,,카페·디저트,서울특별시,tourapi_food
2843485,39,마장동 한우촌,서울특별시 성동구 마장로35길 68 (마장동),,127.041290181,37.5707354421,A05,A0502,A05020100,http://tong.visitkorea.or.kr/cms/resource/80/2843480_image2_1.jpg,,한식,서울특별시,tourapi_food
2869947,39,마제스티 타바론 티 라운지,서울특별시 강남구 도산대로 327 (신사동),,127.0376140865,37.5231714569,A05,A0502,A05020200,http://tong.visitkorea.or.kr/cms/resource/35/2869935_image2_1.JPG,,서양식,서울특별시,tourapi_food
2025260,39,마지,서울특별시 종로구 자하문로5길 19,,126.9707714116,37.5776167085,A05,A0502,A05020700,,02-536-5228,체험음식,서울특별시,tourapi_food
2624690,39,마쯔야,서울특별시 중구 소공로 63,5층,126.9811237176,37.5609438324,A05,A0502,A05020300,,02-310-5038,일식,서울특별시,tourapi_food
2869928,39,마초쉐프 강남본점,서울특별시 강남구 강남대로106길 29 (역삼동),,127.0278599746,37.5035513381,A05,A0502,A05020200,http://tong.visitkorea.or.kr/cms/resource/13/2869913_image2_1.jpg,,서양식,서울특별시,tourapi_food
737480,39,마포소문난원조족발,서울특별시 마포구 만리재로 19,,126.953229495,37.544772989,A05,A0502,A05020100,,02-716-9731,한식,서울특별시,tourapi_food
2841742,39,마포양지설렁탕,서울특별시 마포구 새창로 6 (도화동),,126.9505242619,37.542089919,A05,A0502,A05020100,http://tong.visitkorea.or.kr/cms/resource/35/2841735_image2_1.jpg,,한식,서울특별시,tourapi_food
2847803,39,마포원조떡볶이,서울특별시 마포구 도화2길 3 (도화동),,126.9488105771,37.5403900858,A05,A0502,A05020100,http://tong.visitkorea.or.kr/cms/resource/89/2847789_image2_1.jpg,,한식,서울특별시,tourapi_food
737695,39,마포유가궁중족발,서울특별시 마포구 만리재로 19,,126.953229495,37.544772989,A05,A0502,A05020100,http://tong.visitkorea.or.kr/cms/resource/80/3568680_image2_1.jpg,02-718-7087,한식,서울특별시,tourapi_food
2926952,39,마포집,서울특별시 강남구 남부순환로 2726 거북빌딩,,127.044158997,37.4856731504,A05,A0502,A05020100,http://tong.visitkorea.or.kr/cms/resource/82/2926882_image2_1.jpg,,한식,서울특별시,tourapi_food
2900310,39,마하차이 성수본점,서울특별시 성동구 뚝섬로 399 (성수동2가),,127.0550981573,37.5390004886,A05,A0502,A05020700,http://tong.visitkorea.or.kr/cms/resource/95/2900295_image2_1.jpg,,체험음식,서울특별시,tourapi_food
2679810,39,만다린,서울특별시 영등포구 국회대로29길 16 (당산동4가),,126.8973572393,37.5295432042,A05,A0502,A05020400,http://tong.visitkorea.or.kr/cms/resource/11/2679811_image2_1.jpg,02-2634-0379,중식,서울특별시,tourapi_food
2856695,39,만다린,서울특별시 서초구 방배로6길 10-15 (방배동),,127.0006270489,37.4785370871,A05,A0502,A05020400,http://tong.visitkorea.or.kr/cms/resource/91/2856691_image2_1.jpg,,중식,서울특별시,tourapi_food
2835205,39,만두향,서울특별시 중랑구 면목로74길 6 (면목동),1층,127.0879270771,37.5890952598,A05,A0502,A05020100,http://tong.visitkorea.or.kr/cms/resource/76/2835176_image2_1.jpg,,한식,서울특별시,tourapi_food
3570638,39,만리지화 본점,서울특별시 종로구 종로3길 17 (청진동),,126.9789291877,37.5710481741,A05,A0502,A05020100,http://tong.visitkorea.or.kr/cms/resource/26/3570626_image2_1.jpg,,한식,서울특별시,tourapi_food
2914148,39,만포막국수,서울특별시 중구 동호로14길 2,,127.0103378666,37.5558588365,A05,A0502,A05020100,http://tong.visitkorea.or.kr/cms/resource/44/2914144_image2_1.jpg,,한식,서울특별시,tourapi_food
2869902,39,맛짱조개,서울특별시 강남구 언주로134길 18 (논현동),,127.0370282141,37.5166388719,A05,A0502,A05020100,http://tong.visitkorea.or.kr/cms/resource/86/2869886_image2_1.jpg,,한식,서울특별시,tourapi_food
2783578,39,맛차차,서울특별시 성동구 서울숲2길 18-11,(성수동1가),127.0406075865,37.5469020876,A05,A0502,A05020900,http://tong.visitkorea.or.kr/cms/resource/31/2796231_image2_1.jpg,,카페·디저트,서울특별시,tourapi_food
2847967,39,망우찜쌈밥 본점,서울특별시 중랑구 용마공원로2길 8,1층,127.1003313443,37.5946448388,A05,A0502,A05020100,http://tong.visitkorea.or.kr/cms/resource/55/2847955_image2_1.jpg,,한식,서울특별시,tourapi_food
2842851,39,망원동즉석우동 본점,서울특별시 마포구 동교로 83 (망원동),,126.9111663928,37.5543072392,A05,A0502,A05020300,http://tong.visitkorea.or.kr/cms/resource/47/2842847_image2_1.jpg,,일식,서울특별시,tourapi_food
2783104,39,매일낙지,서울특별시 영등포구 경인로78길 3-16,,126.8953829154,37.5119118844,A05,A0502,A05020100,http://tong.visitkorea.or.kr/cms/resource/12/2782612_image2_1.jpg,,한식,서울특별시,tourapi_food
2938669,39,맥파이앤타이거 성수티룸,서울특별시 성동구 성수이로 97 (성수동2가),,127.0566034424,37.5436999698,A05,A0502,A05020900,,,카페·디저트,서울특별시,tourapi_food
2847018,39,맨메이드 도산,서울특별시 강남구 선릉로153길 35 (신사동),,127.036558587,37.524593495,A05,A0502,A05020900,http://tong.visitkorea.or.kr/cms/resource/81/3567081_image2_1.jpg,,카페·디저트,서울특별시,tourapi_food
2847035,39,맷카페,서울특별시 강남구 학동로50길 42 (논현동),,127.0406362953,37.5139420279,A05,A0502,A05020900,http://tong.visitkorea.or.kr/cms/resource/27/2847027_image2_1.jpg,,카페·디저트,서울특별시,tourapi_food
2849242,39,맹순이꽃게아구찜,서울특별시 강서구 공항대로 272 (내발산동),,126.8377729769,37.5581638139,A05,A0502,A05020100,http://tong.visitkorea.or.kr/cms/resource/37/2849237_image2_1.jpg,,한식,서울특별시,tourapi_food
2851777,39,먹고을전주콩나물국밥 묵동본점,서울특별시 중랑구 중랑역로 268 (묵동),,127.077988326,37.6160141744,A05,A0502,A05020100,http://tong.visitkorea.or.kr/cms/resource/73/2851773_image2_1.jpg,,한식,서울특별시,tourapi_food
2899351,39,메쉬커피,서울특별시 성동구 서울숲길 43,,127.0424684913,37.5481714179,A05,A0502,A05020900,http://tong.visitkorea.or.kr/cms/resource/77/2895277_image2_1.jpg,,카페·디저트,서울특별시,tourapi_food
2840162,39,메이린,서울특별시 강북구 월계로 173 (번동),,127.0445440464,37.619724251,A05,A0502,A05020400,http://tong.visitkorea.or.kr/cms/resource/58/2840158_image2_1.jpg,,중식,서울특별시,tourapi_food
2833368,39,메이비카페,서울특별시 구로구 디지털로32나길 51,,126.9006915216,37.4849984384,A05,A0502,A05020200,http://tong.visitkorea.or.kr/cms/resource/65/2833365_image2_1.jpg,,서양식,서울특별시,tourapi_food
2900247,39,메이플탑,서울특별시 성동구 성수이로14길 14 (주)대명케미칼,성수연방 A동 2층,127.0567923725,37.5416279914,A05,A0502,A05020900,http://tong.visitkorea.or.kr/cms/resource/43/2900243_image2_1.jpg,,카페·디저트,서울특별시,tourapi_food
2853037,39,메종 사우스케이프,서울특별시 강남구 도산대로45길 17 제성빌딩,메종 사우스케이프 2층,127.0350781981,37.5234713765,A05,A0502,A05020200,http://tong.visitkorea.or.kr/cms/resource/25/2853025_image2_1.jpg,,서양식,서울특별시,tourapi_food
2758116,39,메종 한남,서울특별시 용산구 유엔빌리지3길 24,,127.0129521277,37.5343086091,A05,A0502,A05020200,http://tong.visitkorea.or.kr/cms/resource/58/3045758_image2_1.jpg,,서양식,서울특별시,tourapi_food
2809287,39,메종브리크,서울특별시 마포구 동교로38길 27-19,,126.9259842696,37.5620093872,A05,A0502,A05020200,,,서양식,서울특별시,tourapi_food
2864341,39,메종조,서울특별시 서초구 반포대로7길 35 (서초동),,127.0101399735,37.4820368509,A05,A0502,A05020200,http://tong.visitkorea.or.kr/cms/resource/27/2864327_image2_1.jpg,,서양식,서울특별시,tourapi_food
2824947,39,멕시칼리,서울특별시 광진구 천호대로 634 (능동),,127.0875725621,37.5536521491,A05,A0502,A05020200,,,서양식,서울특별시,tourapi_food
2844971,39,멘야하나비,서울특별시 송파구 백제고분로45길 38 (송파동),,127.1077413832,37.5109713579,A05,A0502,A05020300,http://tong.visitkorea.or.kr/cms/resource/61/2844961_image2_1.jpg,,일식,서울특별시,tourapi_food
403053,39,명동교자,서울특별시 중구 명동10길 29 (명동2가),,126.9855954862,37.5625964986,A05,A0502,A05020100,http://tong.visitkorea.or.kr/cms/resource/00/3111400_image2_1.JPG,0507-1366-5348,한식,서울특별시,tourapi_food
134268,39,명동부대찌개 명동황기족발,서울특별시 중구 명동길 25-7,,126.9837706082,37.5641518402,A05,A0502,A05020100,,02-752-6800,한식,서울특별시,tourapi_food
2495458,39,명문막국수,서울특별시 성북구 창경궁로 319 (성북동1가),,127.0049541051,37.5882633071,A05,A0502,A05020100,http://tong.visitkorea.or.kr/cms/resource/02/2495202_image2_1.JPG,02-745-3389,한식,서울특별시,tourapi_food
2663464,39,명보정,서울특별시 영등포구 국제금융로6길 30 (여의도동),,126.9266186801,37.521775185,A05,A0502,A05020100,http://tong.visitkorea.or.kr/cms/resource/65/2663465_image2_1.jpg,,한식,서울특별시,tourapi_food
2867294,39,명인등심 압구정 본점,서울특별시 강남구 도산대로 211 동현빌딩,2층,127.0297093227,37.5206382758,A05,A0502,A05020100,http://tong.visitkorea.or.kr/cms/resource/83/2867283_image2_1.jpg,,한식,서울특별시,tourapi_food
2839950,39,명인밥상,서울특별시 송파구 송이로 155 (가락동),,127.1250514194,37.4933681573,A05,A0502,A05020100,http://tong.visitkorea.or.kr/cms/resource/48/2839948_image2_1.jpg,,한식,서울특별시,tourapi_food
2787231,39,명품기사식당뚝다리김치찌개,서울특별시 강동구 천중로 175 (천호동),,127.1396626132,37.5414072887,A05,A0502,A05020100,http://tong.visitkorea.or.kr/cms/resource/29/2789729_image2_1.jpg,,한식,서울특별시,tourapi_food
2843115,39,모꼬지에,서울특별시 송파구 송파대로36길 5-13 (송파동),,127.1123190409,37.5005254306,A05,A0502,A05020100,http://tong.visitkorea.or.kr/cms/resource/04/2843104_image2_1.jpg,,한식,서울특별시,tourapi_food
1998333,39,모녀김밥,서울특별시 종로구 동호로 403-23,,127.0011132988,37.5702819948,A05,A0502,A05020100,,,한식,서울특별시,tourapi_food
2049609,39,모던눌랑 센트럴시티점,서울특별시 서초구 사평대로 205 (반포동),,127.0077895512,37.5045314196,A05,A0502,A05020400,http://tong.visitkorea.or.kr/cms/resource/85/3570685_image2_1.jpg,02-6282-5005,중식,서울특별시,tourapi_food
3570165,39,모던샤브하우스 광화문D타워점,서울특별시 종로구 종로3길 17 (청진동),D타워 리플레이스 광화문 5층,126.9789291877,37.5710481741,A05,A0502,A05020100,http://tong.visitkorea.or.kr/cms/resource/15/3570215_image2_1.jpg,,한식,서울특별시,tourapi_food
2900401,39,모래내곱창,서울특별시 서대문구 증가로10길 26,,126.9236617944,37.5784518788,A05,A0502,A05020100,http://tong.visitkorea.or.kr/cms/resource/54/3578254_image2_1.jpg,,한식,서울특별시,tourapi_food
2899392,39,모어딥 성수,서울특별시 성동구 성수일로 95-1,1층,127.0512260047,37.5489770378,A05,A0502,A05020900,http://tong.visitkorea.or.kr/cms/resource/79/2899379_image2_1.JPG,,카페·디저트,서울특별시,tourapi_food
2847772,39,모연 마포본점,서울특별시 마포구 토정로 318 (용강동),,126.9437749505,37.5394901003,A05,A0502,A05020100,http://tong.visitkorea.or.kr/cms/resource/67/2847767_image2_1.jpg,,한식,서울특별시,tourapi_food
2899411,39,목금,서울특별시 성동구 왕십리로2길 34 (성수동1가),,127.0484653225,37.5427138265,A05,A0502,A05020200,http://tong.visitkorea.or.kr/cms/resource/97/2899397_image2_1.jpg,,서양식,서울특별시,tourapi_food
2849258,39,목동분식,서울특별시 강서구 강서로45라길 36 (내발산동),,126.8343485381,37.5493175584,A05,A0502,A05020100,http://tong.visitkorea.or.kr/cms/resource/51/2849251_image2_1.jpg,,한식,서울특별시,tourapi_food
2839885,39,목란,서울특별시 서대문구 연희로15길 21,,126.9305031195,37.5684392756,A05,A0502,A05020400,http://tong.visitkorea.or.kr/cms/resource/81/2839881_image2_1.jpg,,중식,서울특별시,tourapi_food
2869793,39,목포명가 율현본점,서울특별시 강남구 밤고개로23길 22 (율현동),,127.1086201343,37.4738423498,A05,A0502,A05020100,http://tong.visitkorea.or.kr/cms/resource/85/2869785_image2_1.jpg,,한식,서울특별시,tourapi_food
2685485,39,몰타참치,서울특별시 강남구 삼성로85길 26,V&S빌딩 2F,127.0550713449,37.5050238783,A05,A0502,A05020300,http://tong.visitkorea.or.kr/cms/resource/05/2684705_image2_1.jpg,02-508-7861,일식,서울특별시,tourapi_food
2869781,39,몽고네,서울특별시 강남구 선릉로155길 5 (신사동),,127.0391305578,37.5252045816,A05,A0502,A05020200,http://tong.visitkorea.or.kr/cms/resource/70/2869770_image2_1.JPG,,서양식,서울특별시,tourapi_food
2842790,39,몽중헌 청담점,서울특별시 강남구 도산대로 445 (청담동),지하 1층,127.0448050642,37.524377002,A05,A0502,A05020400,http://tong.visitkorea.or.kr/cms/resource/84/2842784_image2_1.jpg,,중식,서울특별시,tourapi_food
403044,39,무교동 북어국집,서울특별시 중구 을지로1길 38 (다동),,126.9798736375,37.567795791,A05,A0502,A05020100,http://tong.visitkorea.or.kr/cms/resource/72/3083872_image2_1.JPG,02-777-3891,한식,서울특별시,tourapi_food
2653710,39,무궁화 롯데호텔서울,서울특별시 중구 을지로 30,,126.9816346542,37.565479425,A05,A0502,A05020100,http://tong.visitkorea.or.kr/cms/resource/05/2655205_image2_1.jpg,02-317-7061,한식,서울특별시,tourapi_food
134201,39,무등산,서울특별시 강남구 선릉로146길 3,,127.0399333544,37.5219549732,A05,A0502,A05020100,http://tong.visitkorea.or.kr/cms/resource/89/1838489_image2_1.jpg,02-518-4001,한식,서울특별시,tourapi_food
2869759,39,무등산수만리염소탕 강남점,서울특별시 강남구 역삼로2길 13,,127.0316710499,37.4925499062,A05,A0502,A05020100,http://tong.visitkorea.or.kr/cms/resource/52/2869752_image2_1.jpg,,한식,서울특별시,tourapi_food
2900178,39,무브모브,서울특별시 성동구 성수일로 56 (성수동2가),,127.0504428442,37.5453913292,A05,A0502,A05020900,http://tong.visitkorea.or.kr/cms/resource/56/2900156_image2_1.jpg,,카페·디저트,서울특별시,tourapi_food
2781508,39,무수아취,서울특별시 도봉구 도봉로169길 249 (도봉동),,127.033101807,37.6764424483,A05,A0502,A05020100,http://tong.visitkorea.or.kr/cms/resource/85/3459085_image2_1.JPEG,,한식,서울특별시,tourapi_food
2832803,39,무수옥,서울특별시 도봉구 도봉로165길 15,,127.0441591085,37.677259219,A05,A0502,A05020100,http://tong.visitkorea.or.kr/cms/resource/02/2832802_image2_1.jpg,,한식,서울특별시,tourapi_food
2869380,39,무오키(MUOKI),서울특별시 강남구 학동로55길 12-12 (청담동),,127.0422498927,37.519060907,A05,A0502,A05020200,http://tong.visitkorea.or.kr/cms/resource/56/2869356_image2_1.jpg,,서양식,서울특별시,tourapi_food
2855797,39,무한쌈밥집,서울특별시 서초구 강남대로93길 23-10 (잠원동),,127.018866097,37.5124556978,A05,A0502,A05020100,http://tong.visitkorea.or.kr/cms/resource/89/2855789_image2_1.jpg,,한식,서울특별시,tourapi_food
2848969,39,묵골쌈밥 본점,서울특별시 송파구 새말로15길 22 (문정동),,127.1292095766,37.486260724,A05,A0502,A05020100,http://tong.visitkorea.or.kr/cms/resource/42/2848642_image2_1.jpg,,한식,서울특별시,tourapi_food
1985351,39,문배동 육칼,서울특별시 용산구 백범로90길 50,,126.970328168,37.5365964678,A05,A0502,A05020100,http://tong.visitkorea.or.kr/cms/resource/01/3474801_image2_1.jpg,,한식,서울특별시,tourapi_food
2849487,39,문어세상해천탕,서울특별시 송파구 오금로 169 (방이동),,127.1135547718,37.5099660236,A05,A0502,A05020100,http://tong.visitkorea.or.kr/cms/resource/79/2849479_image2_1.jpg,,한식,서울특별시,tourapi_food
2900146,39,문츠 바베큐,서울특별시 성동구 상원1길 22 (성수동1가),,127.0485291194,37.5457523638,A05,A0502,A05020200,http://tong.visitkorea.or.kr/cms/resource/25/2900125_image2_1.jpg,,서양식,서울특별시,tourapi_food
2839130,39,문화식당,서울특별시 성북구 혜화로 88,2층,126.9982101461,37.5928265443,A05,A0502,A05020200,http://tong.visitkorea.or.kr/cms/resource/21/2839121_image2_1.jpg,,서양식,서울특별시,tourapi_food
2947970,39,뮤직컴플렉스 서울,서울특별시 종로구 인사동길 49,,126.9835675554,37.574520076,A05,A0502,A05020900,http://tong.visitkorea.or.kr/cms/resource/58/2947958_image2_1.jpg,02-6954-2939,카페·디저트,서울특별시,tourapi_food
402880,39,미 피아체,서울특별시 강남구 도산대로70길 34 (청담동),1층,127.0448856938,37.5215134469,A05,A0502,A05020200,http://tong.visitkorea.or.kr/cms/resource/62/398862_image2_1.jpg,02-516-6317,서양식,서울특별시,tourapi_food
2864321,39,미나미,서울특별시 서초구 서초대로58길 31-2 (서초동),,127.0181361469,37.4933912319,A05,A0502,A05020300,http://tong.visitkorea.or.kr/cms/resource/13/2864313_image2_1.jpg,,일식,서울특별시,tourapi_food
2853965,39,미나미야마 본점,서울특별시 중구 소파로 105,,126.9859344939,37.557302675,A05,A0502,A05020300,http://tong.visitkorea.or.kr/cms/resource/51/2853951_image2_1.jpg,,일식,서울특별시,tourapi_food
2871655,39,미누씨(minu c),서울특별시 강남구 논현로26길 4 (도곡동),,127.0435869372,37.4817569285,A05,A0502,A05020200,http://tong.visitkorea.or.kr/cms/resource/80/2871580_image2_1.jpg,,서양식,서울특별시,tourapi_food
697328,39,미니네,서울특별시 중구 다산로 219-1,,127.0150566827,37.5628747731,A05,A0502,A05020100,http://tong.visitkorea.or.kr/cms/resource/62/696262_image2_1.jpg,02-2232-4425,한식,서울특별시,tourapi_food
3416133,39,미드나잇 롤러코스터 클럽,서울특별시 동대문구 망우로 22 (휘경동),,127.0560911185,37.5880336982,A05,A0502,A05020900,http://tong.visitkorea.or.kr/cms/resource/08/3415308_image2_1.jpg,,카페·디저트,서울특별시,tourapi_food
2840174,39,미림산장,서울특별시 강북구 삼양로181길 253 (우이동),,127.0050349948,37.6739422335,A05,A0502,A05020100,http://tong.visitkorea.or.kr/cms/resource/71/2840171_image2_1.jpg,,한식,서울특별시,tourapi_food
2867344,39,미미미 가든,서울특별시 강남구 도산대로 417 (청담동),지하 2층~1층,127.0411331916,37.5238631067,A05,A0502,A05020200,http://tong.visitkorea.or.kr/cms/resource/35/2867335_image2_1.jpg,,서양식,서울특별시,tourapi_food
2871674,39,미에뜨,서울특별시 강남구 양재천로 195 (도곡동),,127.0467699477,37.4829235171,A05,A0502,A05020200,http://tong.visitkorea.or.kr/cms/resource/59/2871659_image2_1.jpg,,서양식,서울특별시,tourapi_food
840629,39,미우미우참숯구이,"서울특별시 송파구 양재대로71길 2-27 (방이동, 인택 파크랜드)",2층,127.1269701761,37.511432762,A05,A0502,A05020100,http://tong.visitkorea.or.kr/cms/resource/90/3474790_image2_1.jpg,010-9427-2581,한식,서울특별시,tourapi_food
2383448,39,미자식당,서울특별시 동작구 노들로 674,노량진수산물도매시장 2층 8호,126.9368568295,37.5149233858,A05,A0502,A05020100,,,한식,서울특별시,tourapi_food
2840190,39,미즐카페엠,서울특별시 강북구 4.19로 107 (수유동),,127.0038026375,37.6436124062,A05,A0502,A05020900,http://tong.visitkorea.or.kr/cms/resource/85/2840185_image2_1.jpg,,카페·디저트,서울특별시,tourapi_food
134752,39,미진,서울특별시 종로구 종로 19 (종로1가),,126.9799374337,37.5708982096,A05,A0502,A05020100,http://tong.visitkorea.or.kr/cms/resource/45/3083645_image2_1.jpg,,한식,서울특별시,tourapi_food
2899515,39,미테이블 성수점,서울특별시 성동구 왕십리로8길 5 (성수동1가),,127.0453071667,37.5465938744,A05,A0502,A05020200,http://tong.visitkorea.or.kr/cms/resource/95/2899495_image2_1.jpg,,서양식,서울특별시,tourapi_food
2855151,39,민속돌솥설렁탕,서울특별시 영등포구 가마산로 366-1 (대림동),,126.8995495059,37.5011104349,A05,A0502,A05020100,http://tong.visitkorea.or.kr/cms/resource/47/2855147_image2_1.jpg,,한식,서울특별시,tourapi_food
3444738,39,밀콩제면소,서울특별시 강북구 4.19로2길 1-2 (수유동),1층,127.0126739202,37.6481953661,A05,A0502,A05020100,http://tong.visitkorea.or.kr/cms/resource/83/3444283_image2_1.jpg,,한식,서울특별시,tourapi_food
2867713,39,밍글스,서울특별시 강남구 도산대로67길 19,힐탑빌딩 2층,127.0441745362,37.5254268684,A05,A0502,A05020100,http://tong.visitkorea.or.kr/cms/resource/94/2867694_image2_1.jpg,,한식,서울특별시,tourapi_food
2899592,39,바다화원 본점,서울특별시 성동구 상원4길 6-1 (성수동1가),,127.0491262472,37.5471660992,A05,A0502,A05020100,http://tong.visitkorea.or.kr/cms/resource/74/2899574_image2_1.jpg,,한식,서울특별시,tourapi_food
2847752,39,바다회사랑,서울특별시 마포구 동교로27길 60 (연남동),,126.9210764267,37.5604678115,A05,A0502,A05020100,http://tong.visitkorea.or.kr/cms/resource/41/2847741_image2_1.jpg,,한식,서울특별시,tourapi_food
2869697,39,바랗,서울특별시 강남구 도산대로 309 (신사동),,127.0352032169,37.5224020587,A05,A0502,A05020100,http://tong.visitkorea.or.kr/cms/resource/99/2869699_image2_1.jpg,,한식,서울특별시,tourapi_food
2855865,39,바른고기 정육점 서래마을본점,서울특별시 서초구 동광로 80 (방배동),,126.9913191564,37.492926916,A05,A0502,A05020100,http://tong.visitkorea.or.kr/cms/resource/63/2855863_image2_1.jpg,,한식,서울특별시,tourapi_food
2869672,39,바빌리안테이블,서울특별시 강남구 압구정로46길 5-2 (신사동),,127.0368834583,37.5280930945,A05,A0502,A05020200,http://tong.visitkorea.or.kr/cms/resource/53/2869653_image2_1.jpg,,서양식,서울특별시,tourapi_food
2899954,39,바위파스타바,서울특별시 성동구 뚝섬로15길 27 (성수동2가),,127.061578118,37.5391866947,A05,A0502,A05020200,http://tong.visitkorea.or.kr/cms/resource/33/2899933_image2_1.jpg,,서양식,서울특별시,tourapi_food
2839397,39,바이킹스워프 롯데월드몰점,서울특별시 송파구 올림픽로 300 롯데월드타워앤드롯데월드몰,4F,127.1040305171,37.5142459111,A05,A0502,A05020200,http://tong.visitkorea.or.kr/cms/resource/92/2839392_image2_1.jpg,,서양식,서울특별시,tourapi_food
2794736,39,바캉스커피,서울특별시 중구 남대문로9길 12 (다동),,126.981759602,37.5669209271,A05,A0502,A05020900,http://tong.visitkorea.or.kr/cms/resource/83/2798283_image2_1.jpg,,카페·디저트,서울특별시,tourapi_food
1998216,39,박가네 빈대떡,서울특별시 종로구 종로32길 7 (종로5가),,127.0008577576,37.5705958426,A05,A0502,A05020100,http://tong.visitkorea.or.kr/cms/resource/46/3474846_image2_1.jpg,02-2267-0614,한식,서울특별시,tourapi_food
2864285,39,박가뼈다귀감자탕 본점,서울특별시 중랑구 망우로 193,,127.0740920902,37.5938639004,A05,A0502,A05020100,http://tong.visitkorea.or.kr/cms/resource/74/2864274_image2_1.jpg,,한식,서울특별시,tourapi_food
133288,39,박석고개,서울특별시 종로구 창경궁로26길 34,,126.9995714467,37.5817722978,A05,A0502,A05020100,,,한식,서울특별시,tourapi_food
2807321,39,박재성의 메밀숯불닭갈비,서울특별시 관악구 신원로 40-16 (신림동),,126.9294806625,37.4815715727,A05,A0502,A05020100,,,한식,서울특별시,tourapi_food
2733965,39,반려문화,서울특별시 강남구 언주로133길 23,(논현동),127.0333174582,37.5160194328,A05,A0502,A05020900,http://tong.visitkorea.or.kr/cms/resource/04/2779104_image2_1.jpeg,,카페·디저트,서울특별시,tourapi_food
2752373,39,반룡산,서울특별시 강남구 테헤란로78길 26,,127.0558212909,37.5045295045,A05,A0502,A05020100,,,한식,서울특별시,tourapi_food
2899928,39,발렁스,서울특별시 종로구 계동길 50 (계동),,126.9868587793,37.5795528837,A05,A0502,A05020900,http://tong.visitkorea.or.kr/cms/resource/15/2899915_image2_1.jpg,,카페·디저트,서울특별시,tourapi_food
2849272,39,발산삼계탕,서울특별시 강서구 강서로 344,,126.837831357,37.556322362,A05,A0502,A05020100,http://tong.visitkorea.or.kr/cms/resource/63/2849263_image2_1.jpg,,한식,서울특별시,tourapi_food
2876684,39,방목,서울특별시 성북구 동소문로2길 21,,127.0076816429,37.5879772783,A05,A0502,A05020100,http://tong.visitkorea.or.kr/cms/resource/97/3576897_image2_1.jpg,,한식,서울특별시,tourapi_food
2839421,39,방이샤브샤브칼국수 방이본점,"서울특별시 송파구 양재대로71길 2-27 (방이동, 인택 파크랜드)",1층 101호,127.1269701761,37.511432762,A05,A0502,A05020100,http://tong.visitkorea.or.kr/cms/resource/05/2839405_image2_1.jpg,,한식,서울특별시,tourapi_food
2914789,39,배꼽집,서울특별시 마포구 월드컵북로54길 17 (상암동),,126.8885621347,37.5813786875,A05,A0502,A05020100,http://tong.visitkorea.or.kr/cms/resource/82/2914782_image2_1.jpg,,한식,서울특별시,tourapi_food
2745580,39,배나무골오리집 양재본점,서울특별시 서초구 마방로2길 12,(양재동),127.0391598057,37.4731578472,A05,A0502,A05020100,http://tong.visitkorea.or.kr/cms/resource/01/2779901_image2_1.jpeg,,한식,서울특별시,tourapi_food
2856443,39,백년손님,서울특별시 용산구 독서당로 23 (한남동),,127.0071833128,37.5306617077,A05,A0502,A05020100,http://tong.visitkorea.or.kr/cms/resource/52/3542052_image2_1.jpg,,한식,서울특별시,tourapi_food
2733856,39,백년옥,서울특별시 서초구 남부순환로 2407 (서초동),,127.0137952186,37.4812481191,A05,A0502,A05020100,http://tong.visitkorea.or.kr/cms/resource/37/2787337_image2_1.jpg,,한식,서울특별시,tourapi_food
684280,39,백리향,서울특별시 영등포구 63로 50 (여의도동),57층,126.939859201,37.519628449,A05,A0502,A05020400,,02-789-5741,중식,서울특별시,tourapi_food
2752385,39,백마김씨네 도곡본점,서울특별시 강남구 남부순환로 2743 (도곡동),,127.0456949246,37.4872091113,A05,A0502,A05020100,http://tong.visitkorea.or.kr/cms/resource/01/2768901_image2_1.jpg,,한식,서울특별시,tourapi_food
2843074,39,백야드빌더성수,서울특별시 성동구 광나루로 152 (성수동1가),,127.0470735343,37.5514738947,A05,A0502,A05020900,http://tong.visitkorea.or.kr/cms/resource/47/2843047_image2_1.jpg,,카페·디저트,서울특별시,tourapi_food
685265,39,백원,서울특별시 영등포구 여의공원로 101 (여의도동),12층,126.9248991792,37.5293492744,A05,A0502,A05020400,,02-784-6161,중식,서울특별시,tourapi_food
133858,39,백제삼계탕,서울특별시 중구 명동8길 8-10 (명동2가),,126.9841178194,37.5634241535,A05,A0502,A05020100,http://tong.visitkorea.or.kr/cms/resource/85/3108585_image2_1.JPG,02-776-3267,한식,서울특별시,tourapi_food
2839571,39,백제추어탕 본점,서울특별시 강동구 양재대로 1406,,127.1381658092,37.5315084107,A05,A0502,A05020100,http://tong.visitkorea.or.kr/cms/resource/65/2839565_image2_1.jpg,,한식,서울특별시,tourapi_food
2763749,39,밴건디스테이크하우스,서울특별시 서초구 사평대로22길 5 (반포동),,126.9977544996,37.4993929474,A05,A0502,A05020200,http://tong.visitkorea.or.kr/cms/resource/49/2787349_image2_1.jpg,,서양식,서울특별시,tourapi_food
836702,39,뱃고동,서울특별시 강남구 언주로172길 54,,127.0380278349,37.5268182631,A05,A0502,A05020100,,,한식,서울특별시,tourapi_food
2871687,39,뱅뱅막국수,서울특별시 강남구 도곡로 112 (도곡동),,127.0328543559,37.489705813,A05,A0502,A05020100,http://tong.visitkorea.or.kr/cms/resource/83/2871683_image2_1.jpg,,한식,서울특별시,tourapi_food
232261,39,버드나무집 본점,서울특별시 서초구 효령로 434,(서초동),127.031179526,37.4890947428,A05,A0502,A05020100,http://tong.visitkorea.or.kr/cms/resource/76/2926776_image2_1.jpg,02-3473-4167,한식,서울특별시,tourapi_food
2839588,39,버섯잔치집 본점,서울특별시 강동구 성내로 52 성원빌딩,,127.1257114761,37.5283696617,A05,A0502,A05020100,http://tong.visitkorea.or.kr/cms/resource/82/2839582_image2_1.jpg,,한식,서울특별시,tourapi_food
2752116,39,벌교한상,서울특별시 강남구 광평로46길 7,수서역벌교한상,127.0994234067,37.4859130054,A05,A0502,A05020100,,,한식,서울특별시,tourapi_food
2860400,39,베라 한남점,서울특별시 용산구 이태원로 272 (한남동),,127.0020891025,37.5387634524,A05,A0502,A05020200,http://tong.visitkorea.or.kr/cms/resource/73/2860373_image2_1.jpg,,서양식,서울특별시,tourapi_food
2789499,39,베이스캠프,서울특별시 마포구 잔다리로3안길 21 (서교동),,126.9197768169,37.5508383519,A05,A0502,A05020700,http://tong.visitkorea.or.kr/cms/resource/21/2795321_image2_1.jpg,,체험음식,서울특별시,tourapi_food
2860998,39,베이징,서울특별시 강서구 화곡로 118 (화곡동),,126.8349793004,37.5399214403,A05,A0502,A05020400,http://tong.visitkorea.or.kr/cms/resource/96/2860996_image2_1.jpg,,중식,서울특별시,tourapi_food
2899876,39,베티버,서울특별시 성동구 성덕정11길 18 (성수동2가),,127.0532094413,37.5389754575,A05,A0502,A05020900,http://tong.visitkorea.or.kr/cms/resource/71/2899871_image2_1.jpg,,카페·디저트,서울특별시,tourapi_food
3443228,39,벤의 서재,서울특별시 강서구 공항대로 219 (마곡동),3층 301호,126.8320234586,37.559688534,A05,A0502,A05020900,http://tong.visitkorea.or.kr/cms/resource/92/3442892_image2_1.JPG,,카페·디저트,서울특별시,tourapi_food
134796,39,벽제갈비 방이점,서울특별시 송파구 양재대로71길 1-4 (방이동),,127.1262258393,37.510063463,A05,A0502,A05020100,,02-415-5522,한식,서울특별시,tourapi_food
2859974,39,보광기사식당,서울특별시 용산구 장문로6길 97 (동빙고동),,126.9963760925,37.526112042,A05,A0502,A05020100,http://tong.visitkorea.or.kr/cms/resource/68/2859968_image2_1.jpg,,한식,서울특별시,tourapi_food
2682947,39,보따리부대찌개,서울특별시 영등포구 당산로 222,당산디오빌 지하 113호,126.9025622113,37.533398404,A05,A0502,A05020100,http://tong.visitkorea.or.kr/cms/resource/92/2701292_image2_1.jpg,02-2068-1127,한식,서울특별시,tourapi_food
2665070,39,보보식당,서울특별시 강남구 언주로174길 30 (신사동),1층 103호,127.0363057386,37.5279014396,A05,A0502,A05020400,http://tong.visitkorea.or.kr/cms/resource/75/2665075_image2_1.jpg,,중식,서울특별시,tourapi_food
2871711,39,보슬보슬 역삼본점,서울특별시 강남구 논현로85길 59 (역삼동),,127.0332957575,37.4976604525,A05,A0502,A05020100,http://tong.visitkorea.or.kr/cms/resource/00/2871700_image2_1.jpg,,한식,서울특별시,tourapi_food
2856199,39,보아즈,서울특별시 서초구 양재천로 53 (양재동),,127.0358073019,37.4742576593,A05,A0502,A05020900,http://tong.visitkorea.or.kr/cms/resource/91/2856191_image2_1.jpg,,카페·디저트,서울특별시,tourapi_food
2914233,39,복성각,서울특별시 서대문구 명물1길 24 (창천동),,126.9374138812,37.558521108,A05,A0502,A05020400,http://tong.visitkorea.or.kr/cms/resource/28/2914228_image2_1.jpg,,중식,서울특별시,tourapi_food
2847012,39,본가진미간장게장,서울특별시 송파구 백제고분로 420 (송파동),,127.1113272416,37.5083800567,A05,A0502,A05020100,http://tong.visitkorea.or.kr/cms/resource/00/2847000_image2_1.jpg,,한식,서울특별시,tourapi_food
2899886,39,본노엘 성수점,서울특별시 성동구 상원길 64,1층,127.0480262726,37.5497991067,A05,A0502,A05020900,http://tong.visitkorea.or.kr/cms/resource/65/2899865_image2_1.JPG,,카페·디저트,서울특별시,tourapi_food
2855877,39,볼라레,서울특별시 서초구 사평대로20길 8 성훈빌딩,,126.9969073621,37.4991318518,A05,A0502,A05020200,http://tong.visitkorea.or.kr/cms/resource/72/2855872_image2_1.jpg,,서양식,서울특별시,tourapi_food
2867381,39,볼트스테이크하우스,서울특별시 강남구 압구정로72길 22,,127.0449883614,37.5250602591,A05,A0502,A05020200,http://tong.visitkorea.or.kr/cms/resource/78/2867378_image2_1.jpg,,서양식,서울특별시,tourapi_food
2815401,39,봄솔레씨네,서울특별시 동대문구 서울시립대로29길 3,,127.0541691885,37.5839146983,A05,A0502,A05020200,,,서양식,서울특별시,tourapi_food
2839606,39,봉래면옥,서울특별시 강동구 명일로 200-16,,127.1466954442,37.5365746434,A05,A0502,A05020100,http://tong.visitkorea.or.kr/cms/resource/95/2839595_image2_1.jpg,,한식,서울특별시,tourapi_food
2871724,39,봉밀가 강남구청점,서울특별시 강남구 선릉로 664 (삼성동),,127.0423110856,37.515952935,A05,A0502,A05020100,http://tong.visitkorea.or.kr/cms/resource/20/2871720_image2_1.jpg,,한식,서울특별시,tourapi_food
2733860,39,봉우리 역삼본점,서울특별시 강남구 논현로94길 25-3 (역삼동),,127.0381618277,37.5030932429,A05,A0502,A05020100,http://tong.visitkorea.or.kr/cms/resource/58/2782458_image2_1.jpg,,한식,서울특별시,tourapi_food
2849289,39,봉이밥,서울특별시 강서구 마곡중앙로 171 (마곡동),,126.8277930252,37.5690790332,A05,A0502,A05020100,http://tong.visitkorea.or.kr/cms/resource/80/2849280_image2_1.jpg,,한식,서울특별시,tourapi_food
2495465,39,봉파레트,서울특별시 성북구 창경궁로43길 14,,127.004412479,37.5885854822,A05,A0502,A05020200,http://tong.visitkorea.or.kr/cms/resource/01/3577401_image2_1.jpg,02-766-0827,서양식,서울특별시,tourapi_food
2774280,39,봉피양 방이점,서울특별시 송파구 양재대로71길 1-4,(방이동),127.1262063951,37.5100829048,A05,A0502,A05020100,,,한식,서울특별시,tourapi_food
2837964,39,봉희설렁탕 본점,서울특별시 은평구 증산로 413 (신사동),,126.9138622709,37.5931861011,A05,A0502,A05020100,http://tong.visitkorea.or.kr/cms/resource/49/2837949_image2_1.jpg,,한식,서울특별시,tourapi_food
2899906,39,뵈르니,서울특별시 성동구 성덕정5길 10 (성수동1가),,127.0488542695,37.5394169946,A05,A0502,A05020900,http://tong.visitkorea.or.kr/cms/resource/92/2899892_image2_1.jpg,,카페·디저트,서울특별시,tourapi_food
402929,39,부다스벨리 이태원,서울특별시 용산구 녹사평대로40길 48,(이태원동),126.9884099171,37.5343748281,A05,A0502,A05020700,,02-796-9330,체험음식,서울특별시,tourapi_food
2788819,39,부민옥,서울특별시 중구 다동길 24-12,(다동),126.9801930592,37.5675847106,A05,A0502,A05020100,http://tong.visitkorea.or.kr/cms/resource/39/2789539_image2_1.jpg,,한식,서울특별시,tourapi_food
3570323,39,부베트 본점,서울특별시 강남구 논현로 854 (신사동),안다즈 서울 강남 상업시설 건물 1층,127.0288814863,37.5253738224,A05,A0502,A05020200,http://tong.visitkorea.or.kr/cms/resource/89/3570289_image2_1.jpg,,서양식,서울특별시,tourapi_food
2839975,39,부부횟집,서울특별시 송파구 오금로18길 4 I.D.C빌딩,,127.1107216798,37.5105353512,A05,A0502,A05020100,http://tong.visitkorea.or.kr/cms/resource/70/2839970_image2_1.jpg,,한식,서울특별시,tourapi_food
2842725,39,부부횟집,서울특별시 동대문구 장한로 198,,127.0724760186,37.5781295887,A05,A0502,A05020100,http://tong.visitkorea.or.kr/cms/resource/23/2842723_image2_1.jpg,,한식,서울특별시,tourapi_food
2902191,39,부암동 몽유도원,서울특별시 종로구 창의문로11길 10 (부암동),,126.9627272302,37.5942118572,A05,A0502,A05020900,http://tong.visitkorea.or.kr/cms/resource/76/2902176_image2_1.jpg,,카페·디저트,서울특별시,tourapi_food
2855162,39,부여집,서울특별시 영등포구 선유동1로 24 (당산동2가),,126.8921606365,37.5243353827,A05,A0502,A05020100,http://tong.visitkorea.or.kr/cms/resource/58/2855158_image2_1.jpg,,한식,서울특별시,tourapi_food
2849505,39,부일갈매기,서울특별시 송파구 삼전로13길 4 (잠실동),,127.0899097756,37.5073436802,A05,A0502,A05020100,http://tong.visitkorea.or.kr/cms/resource/98/2849498_image2_1.jpg,,한식,서울특별시,tourapi_food
2852021,39,부첼리하우스,서울특별시 용산구 독서당로 122-1 포트힐(Fort Hill) 빌딩,,127.0128715069,37.5368999735,A05,A0502,A05020200,http://tong.visitkorea.or.kr/cms/resource/13/2852013_image2_1.jpg,,서양식,서울특별시,tourapi_food
2870297,39,부타이 1막,서울특별시 강남구 테헤란로88길 22 (대치동),,127.0600541909,37.5062238284,A05,A0502,A05020300,http://tong.visitkorea.or.kr/cms/resource/94/2870294_image2_1.jpg,,일식,서울특별시,tourapi_food
2853988,39,붓처스컷 광화문점,서울특별시 중구 세종대로 136 (태평로1가),,126.9782987614,37.5685067916,A05,A0502,A05020200,http://tong.visitkorea.or.kr/cms/resource/80/2853980_image2_1.jpg,,서양식,서울특별시,tourapi_food
2663118,39,브라운에비뉴,서울특별시 종로구 혜화로3길 5,아남 주상복합 301동 112호,127.0001768379,37.5856246395,A05,A0502,A05020900,http://tong.visitkorea.or.kr/cms/resource/40/2666140_image2_1.jpg,02-762-8334,카페·디저트,서울특별시,tourapi_food
3017801,39,브라이언스커피,서울특별시 강남구 논현로26길 46 (도곡동),"1층, 2층",127.0458005641,37.4839094962,A05,A0502,A05020900,,,카페·디저트,서울특별시,tourapi_food
2815891,39,브래디스커피,서울특별시 마포구 성미산로23안길 23,,126.9209984936,37.5662310296,A05,A0502,A05020900,http://tong.visitkorea.or.kr/cms/resource/86/3580786_image2_1.jpg,,카페·디저트,서울특별시,tourapi_food
2834678,39,브랜뉴하이몬드,서울특별시 강동구 천호옛14길 11,,127.1261723144,37.5364853944,A05,A0502,A05020900,http://tong.visitkorea.or.kr/cms/resource/64/2834664_image2_1.jpg,,카페·디저트,서울특별시,tourapi_food
2901160,39,브로벨커피,서울특별시 성동구 뚝섬로 413 (성수동2가),,127.0564230464,37.5386588853,A05,A0502,A05020900,http://tong.visitkorea.or.kr/cms/resource/32/2901132_image2_1.jpg,,카페·디저트,서울특별시,tourapi_food
2855896,39,브루스리,서울특별시 서초구 양재천로 147-1 (양재동),,127.0428787231,37.4798265841,A05,A0502,A05020400,http://tong.visitkorea.or.kr/cms/resource/85/2855885_image2_1.jpg,,중식,서울특별시,tourapi_food
3457554,39,비마이피스,서울특별시 구로구 구일로10길 27 (구로동),,126.873257612,37.4955911628,A05,A0502,A05020900,http://tong.visitkorea.or.kr/cms/resource/59/3453759_image2_1.jpg,,카페·디저트,서울특별시,tourapi_food
2899926,39,비사벌 전주 콩나물 국밥,서울특별시 성동구 왕십리로6길 1-2 (성수동1가),,127.0450405319,37.5463355662,A05,A0502,A05020100,http://tong.visitkorea.or.kr/cms/resource/17/2899917_image2_1.jpg,,한식,서울특별시,tourapi_food
2832942,39,비스타 워커힐 서울 피자힐,서울특별시 광진구 워커힐로 177 워커힐호텔,,127.1069125182,37.5518832586,A05,A0502,A05020200,http://tong.visitkorea.or.kr/cms/resource/34/2832934_image2_1.jpg,,서양식,서울특별시,tourapi_food
2855918,39,비스트로누,서울특별시 서초구 사평대로26길 26-6 (반포동),,126.9987683029,37.4991485492,A05,A0502,A05020200,http://tong.visitkorea.or.kr/cms/resource/07/2855907_image2_1.jpg,,서양식,서울특별시,tourapi_food
2899830,39,비아트 성수,서울특별시 성동구 아차산로5길 24-45 (성수동2가),,127.054289665,37.5471967443,A05,A0502,A05020900,http://tong.visitkorea.or.kr/cms/resource/09/2899809_image2_1.jpg,,카페·디저트,서울특별시,tourapi_food
2804501,39,비언유주얼,서울특별시 강남구 선릉로108길 5,,127.0446388305,37.5096425987,A05,A0502,A05020900,http://tong.visitkorea.or.kr/cms/resource/69/3569169_image2_1.png,,카페·디저트,서울특별시,tourapi_food
2870210,39,비올레타,서울특별시 성동구 금호로 60,뒷편 1층 B01,127.0260283083,37.5486655101,A05,A0502,A05020900,http://tong.visitkorea.or.kr/cms/resource/11/3579111_image2_1.jpg,,카페·디저트,서울특별시,tourapi_food
2842692,39,비케이(BK) 볏짚 우대갈비 장안동본점,서울특별시 동대문구 장한로26가길 29 (장안동),,127.0715763169,37.5705221232,A05,A0502,A05020100,http://tong.visitkorea.or.kr/cms/resource/87/2842687_image2_1.jpg,,한식,서울특별시,tourapi_food
134702,39,비하인드(B-hind),서울특별시 마포구 어울마당로5길 18,1층,126.9196546499,37.5492913074,A05,A0502,A05020900,http://tong.visitkorea.or.kr/cms/resource/25/3474725_image2_1.jpg,02-3141-7212,카페·디저트,서울특별시,tourapi_food
2875964,39,빈브라더스 합정,서울특별시 마포구 토정로 35-1 (합정동),,126.9149968402,37.5457721891,A05,A0502,A05020900,http://tong.visitkorea.or.kr/cms/resource/54/2875954_image2_1.jpg,,카페·디저트,서울특별시,tourapi_food
2733862,39,빌즈 강남,서울특별시 강남구 테헤란로 142,(역삼동),127.0349788776,37.4997880134,A05,A0502,A05020900,http://tong.visitkorea.or.kr/cms/resource/44/2788844_image2_1.jpg,,카페·디저트,서울특별시,tourapi_food
2789346,39,빠우,서울특별시 중구 을지로 157 (산림동),,126.9954639013,37.5671766984,A05,A0502,A05020900,http://tong.visitkorea.or.kr/cms/resource/90/2792090_image2_1.jpg,,카페·디저트,서울특별시,tourapi_food
2899802,39,뺑드에코,서울특별시 성동구 성수일로 20 (성수동1가),,127.0490486137,37.5423277709,A05,A0502,A05020900,http://tong.visitkorea.or.kr/cms/resource/93/2899793_image2_1.jpg,,카페·디저트,서울특별시,tourapi_food
836044,39,뽐모도로,서울특별시 종로구 새문안로9길 19-1,,126.9756378181,37.5711258838,A05,A0502,A05020200,,02-722-4675,서양식,서울특별시,tourapi_food
2870343,39,뽕나무쟁이 선릉본점,서울특별시 강남구 역삼로65길 31 (대치동),,127.0520161176,37.5032518068,A05,A0502,A05020100,http://tong.visitkorea.or.kr/cms/resource/37/2870337_image2_1.jpg,,한식,서울특별시,tourapi_food
2848950,39,뽕사부,서울특별시 송파구 백제고분로 498 (방이동),,127.1152961467,37.5146682874,A05,A0502,A05020400,http://tong.visitkorea.or.kr/cms/resource/56/2848656_image2_1.jpg,,중식,서울특별시,tourapi_food
2935186,39,뿡어당,서울특별시 성북구 보문로34길 94,102호,127.0205525978,37.5912799036,A05,A0502,A05020900,http://tong.visitkorea.or.kr/cms/resource/83/3577483_image2_1.jpg,0507-1381-2796,카페·디저트,서울특별시,tourapi_food
2818756,39,사담,서울특별시 관악구 남부순환로 1852,(봉천동) 5층,126.9555949971,37.4799527826,A05,A0502,A05020900,,,카페·디저트,서울특별시,tourapi_food
2849301,39,사모님짬뽕,서울특별시 강서구 금낭화로18길 10 (방화동),,126.8122776038,37.575130831,A05,A0502,A05020400,http://tong.visitkorea.or.kr/cms/resource/95/2849295_image2_1.jpg,,중식,서울특별시,tourapi_food
2858244,39,사운드키친,서울특별시 마포구 백범로24길 11,,126.9451135334,37.5460032563,A05,A0502,A05020200,http://tong.visitkorea.or.kr/cms/resource/03/3580503_image2_1.jpg,,서양식,서울특별시,tourapi_food
2834844,39,사이코우스시 쌍문점,서울특별시 도봉구 해등로 184 (쌍문동),,127.0364270305,37.6579807667,A05,A0502,A05020300,http://tong.visitkorea.or.kr/cms/resource/40/2834840_image2_1.jpg,,일식,서울특별시,tourapi_food
1316965,39,사찰음식 전문점 발우공양,서울특별시 종로구 우정국로 56,,126.9831814961,37.5739312489,A05,A0502,A05020100,,02-733-2081,한식,서울특별시,tourapi_food
2836111,39,산들애건강밥상,서울특별시 은평구 대서문길 43-16,,126.9492544791,37.6561877405,A05,A0502,A05020100,http://tong.visitkorea.or.kr/cms/resource/06/2836106_image2_1.jpg,,한식,서울특별시,tourapi_food
2839980,39,산들해 송파점,서울특별시 송파구 위례성대로 6 (방이동),,127.1131657222,37.5168929903,A05,A0502,A05020100,http://tong.visitkorea.or.kr/cms/resource/78/2839978_image2_1.jpg,,한식,서울특별시,tourapi_food
250564,39,산띠,서울특별시 마포구 와우산로27길 70,,126.9249762108,37.555532344,A05,A0502,A05020700,http://tong.visitkorea.or.kr/cms/resource/81/3567681_image2_1.jpg,02-6052-3989,체험음식,서울특별시,tourapi_food
2836148,39,산모퉁이,서울특별시 종로구 백석동길 153,,126.967982271,37.5954756933,A05,A0502,A05020900,http://tong.visitkorea.or.kr/cms/resource/43/2836143_image2_1.jpg,,카페·디저트,서울특별시,tourapi_food
2914110,39,산수갑산,서울특별시 중구 을지로20길 24 (인현동1가),,126.9953306286,37.5654685618,A05,A0502,A05020100,http://tong.visitkorea.or.kr/cms/resource/97/2914097_image2_1.jpg,,한식,서울특별시,tourapi_food
2839618,39,산수고원,서울특별시 강동구 동남로 588,,127.1480955905,37.526973006,A05,A0502,A05020100,http://tong.visitkorea.or.kr/cms/resource/16/2839616_image2_1.jpg,,한식,서울특별시,tourapi_food
402970,39,산촌,서울특별시 종로구 인사동길 30-13,(관훈동),126.9863034359,37.573853536,A05,A0502,A05020700,,02-735-0312,체험음식,서울특별시,tourapi_food
2852902,39,살구나무집 칼국수,서울특별시 양천구 중앙로32길 35 (신정동),,126.8575722574,37.5195519881,A05,A0502,A05020100,http://tong.visitkorea.or.kr/cms/resource/65/2852865_image2_1.jpg,,한식,서울특별시,tourapi_food
697234,39,삼대할먼네,서울특별시 중구 퇴계로76길 50 (신당동),,127.0147900298,37.5632441693,A05,A0502,A05020100,,02-2233-1559,한식,서울특별시,tourapi_food
398342,39,삼성 빨간양념 숯불구이,서울특별시 중구 남대문로1길 39,,126.9772490174,37.5628546523,A05,A0502,A05020100,,,한식,서울특별시,tourapi_food
132892,39,삼원가든,서울특별시 강남구 언주로 835,,127.0324617282,37.5249322713,A05,A0502,A05020100,http://tong.visitkorea.or.kr/cms/resource/32/3588032_image2_1.jpg,,한식,서울특별시,tourapi_food
2685594,39,삼청각,서울특별시 성북구 대사관로 3,,126.9835391309,37.597422969,A05,A0502,A05020100,http://tong.visitkorea.or.kr/cms/resource/42/2684742_image2_1.jpg,02-765-3700,한식,서울특별시,tourapi_food
402994,39,삼청동수제비,서울특별시 종로구 삼청로 101-1,,126.9819035323,37.5846049848,A05,A0502,A05020100,http://tong.visitkorea.or.kr/cms/resource/12/3082712_image2_1.jpg,,한식,서울특별시,tourapi_food
834631,39,삼해집,서울특별시 종로구 수표로20길 16-15,(관수동),126.9909920073,37.5699901802,A05,A0502,A05020100,http://tong.visitkorea.or.kr/cms/resource/22/3474822_image2_1.jpg,,한식,서울특별시,tourapi_food
2870393,39,삼호 짱뚱이,서울특별시 강남구 도산대로34길 11 (논현동),,127.0310397845,37.5196800777,A05,A0502,A05020100,http://tong.visitkorea.or.kr/cms/resource/53/2870353_image2_1.jpg,,한식,서울특별시,tourapi_food
2914917,39,색동저고리,서울특별시 마포구 도화길 27 (도화동),,126.9489883234,37.5409316927,A05,A0502,A05020100,http://tong.visitkorea.or.kr/cms/resource/12/2914912_image2_1.jpg,,한식,서울특별시,tourapi_food
403381,39,샛집남원추어탕,서울특별시 송파구 오금로11길 7-12 (방이동),,127.1077607138,37.514915345,A05,A0502,A05020100,http://tong.visitkorea.or.kr/cms/resource/96/3474796_image2_1.jpg,02-421-8163,한식,서울특별시,tourapi_food
2871081,39,생강김밥 본점,서울특별시 강남구 남부순환로 2738 상일빌딩,,127.0454338713,37.4860175782,A05,A0502,A05020100,,,한식,서울특별시,tourapi_food
2845881,39,생생아구,서울특별시 송파구 백제고분로7길 8-37 (잠실동),,127.0802939404,37.5088683301,A05,A0502,A05020100,http://tong.visitkorea.or.kr/cms/resource/68/2845868_image2_1.jpg,,한식,서울특별시,tourapi_food
3458178,39,샤브옥,서울특별시 성북구 동소문로20다길 2 (동선동1가),,127.0168918121,37.5915742478,A05,A0502,A05020100,http://tong.visitkorea.or.kr/cms/resource/54/3455454_image2_1.jpg,,한식,서울특별시,tourapi_food
2867731,39,샤블리,서울특별시 강남구 강남대로152길 35,2층,127.0222128537,37.518141209,A05,A0502,A05020700,http://tong.visitkorea.or.kr/cms/resource/17/2867717_image2_1.jpg,,체험음식,서울특별시,tourapi_food
3094138,39,샤오바오우육면 종로본점,서울특별시 종로구 삼일대로17길 15 (관철동),,126.9866396503,37.5691374236,A05,A0502,A05020100,http://tong.visitkorea.or.kr/cms/resource/36/3094136_image2_1.jpg,,한식,서울특별시,tourapi_food
2733861,39,서강팔경,서울특별시 마포구 토정로 128,(상수동),126.9253709158,37.545008574,A05,A0502,A05020200,http://tong.visitkorea.or.kr/cms/resource/42/3580342_image2_1.jpg,,서양식,서울특별시,tourapi_food
2745572,39,서관면옥,서울특별시 서초구 서초대로56길 11,(서초동),127.0172973157,37.4940466965,A05,A0502,A05020100,http://tong.visitkorea.or.kr/cms/resource/17/2779917_image2_1.jpg,,한식,서울특별시,tourapi_food
2855178,39,서궁,"서울특별시 영등포구 국제금융로 86 (여의도동, 롯데캐슬 아이비)",,126.9318099165,37.5202560099,A05,A0502,A05020400,http://tong.visitkorea.or.kr/cms/resource/70/2855170_image2_1.jpg,,중식,서울특별시,tourapi_food
403004,39,서당골 수유본점,서울특별시 강북구 한천로 1153 (수유동),,127.0169568987,37.6469289235,A05,A0502,A05020100,,02-900-7797,한식,서울특별시,tourapi_food
2745569,39,서래본갈비,서울특별시 서초구 사평대로 126 (반포동),,126.998362765,37.4998290187,A05,A0502,A05020100,http://tong.visitkorea.or.kr/cms/resource/97/2787797_image2_1.jpg,,한식,서울특별시,tourapi_food
2855972,39,서래향,서울특별시 서초구 사평대로26길 48 (반포동),,126.9988822101,37.4981292257,A05,A0502,A05020400,http://tong.visitkorea.or.kr/cms/resource/62/2855962_image2_1.jpg,,중식,서울특별시,tourapi_food
2914942,39,서룡,서울특별시 마포구 월드컵북로 361 DMC이안오피스텔,2단지 201호,126.8914258814,37.5771597852,A05,A0502,A05020400,http://tong.visitkorea.or.kr/cms/resource/29/2914929_image2_1.jpg,,중식,서울특별시,tourapi_food
2902898,39,서린낙지,서울특별시 종로구 종로 19 (종로1가),,126.9799374337,37.5708982096,A05,A0502,A05020100,http://tong.visitkorea.or.kr/cms/resource/96/2902896_image2_1.jpg,,한식,서울특별시,tourapi_food
2845667,39,서부감자국,서울특별시 은평구 서오릉로 8 (녹번동),,126.9269524857,37.6023102741,A05,A0502,A05020100,http://tong.visitkorea.or.kr/cms/resource/56/2845656_image2_1.jpg,,한식,서울특별시,tourapi_food
2842749,39,서산간장게장,서울특별시 동대문구 장한로24길 7 (장안동),,127.0715179771,37.5709470728,A05,A0502,A05020100,http://tong.visitkorea.or.kr/cms/resource/33/2842733_image2_1.jpg,,한식,서울특별시,tourapi_food
133785,39,서석대,서울특별시 서초구 서초대로 346,,127.0194526437,37.4951604943,A05,A0502,A05020100,http://tong.visitkorea.or.kr/cms/resource/31/1808731_image2_1.jpg,02-537-0077,한식,서울특별시,tourapi_food
3461606,39,서울 본크레페,서울특별시 성북구 동소문로20다길 30 (동선동1가),,127.0183055578,37.5920825475,A05,A0502,A05020900,http://tong.visitkorea.or.kr/cms/resource/94/3461594_image2_1.jpg,,카페·디저트,서울특별시,tourapi_food
2854027,39,서울다이닝,서울특별시 중구 동호로 272 (장충동2가),,127.0036411567,37.5593194253,A05,A0502,A05020200,http://tong.visitkorea.or.kr/cms/resource/19/2854019_image2_1.jpg,,서양식,서울특별시,tourapi_food
3458089,39,서울로PH,서울특별시 중구 만리재로 211 (만리동1가),11층 1호,126.9681750278,37.5563607992,A05,A0502,A05020900,http://tong.visitkorea.or.kr/cms/resource/06/3455306_image2_1.jpg,,카페·디저트,서울특별시,tourapi_food
398350,39,서울서둘째로잘하는집,서울특별시 종로구 삼청로 122-1,(삼청동),126.9818479335,37.5863103414,A05,A0502,A05020900,,02-734-5302,카페·디저트,서울특별시,tourapi_food
2839181,39,서울왕돈까스,서울특별시 성북구 창경궁로35다길 140,,126.999351717,37.5925349323,A05,A0502,A05020200,http://tong.visitkorea.or.kr/cms/resource/72/2839172_image2_1.jpg,,서양식,서울특별시,tourapi_food
2861171,39,서울홍성원,서울특별시 강서구 공항대로 206 (마곡동),,126.8302875269,37.5589469226,A05,A0502,A05020400,http://tong.visitkorea.or.kr/cms/resource/06/2861006_image2_1.jpg,,중식,서울특별시,tourapi_food
3094657,39,서화,서울특별시 중구 서소문로 109 (서소문동),,126.9732354885,37.5630517793,A05,A0502,A05020100,http://tong.visitkorea.or.kr/cms/resource/54/3094654_image2_1.jpg,,한식,서울특별시,tourapi_food
133769,39,석파랑,서울특별시 종로구 자하문로 309,(홍지동),126.9587635581,37.5993084164,A05,A0502,A05020100,,,한식,서울특별시,tourapi_food
2609645,39,선동보리밥,서울특별시 성북구 성북로 134-4 (성북동),,126.9951603694,37.5947457108,A05,A0502,A05020100,http://tong.visitkorea.or.kr/cms/resource/12/2609812_image2_1.jpg,02-743-2096,한식,서울특별시,tourapi_food
2855984,39,설눈,서울특별시 서초구 서초대로46길 20-7 (서초동),,127.0097841885,37.4912829935,A05,A0502,A05020100,http://tong.visitkorea.or.kr/cms/resource/81/2855981_image2_1.jpg,,한식,서울특별시,tourapi_food
2670582,39,설레는마중,서울특별시 종로구 인사동길 49,,126.9835620013,37.5744839692,A05,A0502,A05020900,http://tong.visitkorea.or.kr/cms/resource/30/2669030_image2_1.jpg,02-6954-2915,카페·디저트,서울특별시,tourapi_food
2603070,39,설마중,서울특별시 서초구 남부순환로 2648,,127.0382566953,37.4878311276,A05,A0502,A05020100,http://tong.visitkorea.or.kr/cms/resource/72/2603072_image2_1.JPG,,한식,서울특별시,tourapi_food
2907094,39,성미골,서울특별시 마포구 월드컵로 137 (망원동),,126.9061361302,37.5601925763,A05,A0502,A05020100,http://tong.visitkorea.or.kr/cms/resource/76/2906876_image2_1.jpg,,한식,서울특별시,tourapi_food
713839,39,성민촌,서울특별시 영등포구 여의나루로 71 (여의도동),지하 1층,126.9268935965,37.5238305066,A05,A0502,A05020100,,02-780-6262,한식,서울특별시,tourapi_food
2000790,39,성북동 구포국수,서울특별시 성북구 성북로12길 2,,127.002687518,37.5927405238,A05,A0502,A05020100,,02-744-0215,한식,서울특별시,tourapi_food
2495915,39,성북동누룽지백숙,서울특별시 성북구 성북로31길 9 (성북동),,126.990480244,37.5946345287,A05,A0502,A05020100,http://tong.visitkorea.or.kr/cms/resource/70/2495170_image2_1.JPG,02-754-0707,한식,서울특별시,tourapi_food
2873293,39,성북동면옥집,서울특별시 성북구 대사관로 40,,126.9886470404,37.5959482318,A05,A0502,A05020100,http://tong.visitkorea.or.kr/cms/resource/60/3576960_image2_1.jpg,,한식,서울특별시,tourapi_food
2834536,39,성북동빵공장,서울특별시 성북구 대사관로 40,B동,126.9886470404,37.5959482318,A05,A0502,A05020900,http://tong.visitkorea.or.kr/cms/resource/20/2834520_image2_1.jpg,,카페·디저트,서울특별시,tourapi_food
2899749,39,성수노루,서울특별시 성동구 아차산로 110 (성수동2가),,127.0561729109,37.5442415655,A05,A0502,A05020100,http://tong.visitkorea.or.kr/cms/resource/27/3486627_image2_1.jpg,,한식,서울특별시,tourapi_food
2837773,39,성수다락,서울특별시 성동구 뚝섬로9길 20,2층,127.0562480244,37.5399865056,A05,A0502,A05020200,http://tong.visitkorea.or.kr/cms/resource/40/2843240_image2_1.jpg,,서양식,서울특별시,tourapi_food
2894352,39,성수망치버거,서울특별시 성동구 성덕정3길 8 (성수동1가),,127.0476515952,37.5396169495,A05,A0502,A05020200,http://tong.visitkorea.or.kr/cms/resource/32/2894332_image2_1.JPG,,서양식,서울특별시,tourapi_food
2894319,39,성수베이킹스튜디오,서울특별시 성동구 서울숲2길 46 (성수동1가),,127.0437628723,37.5462494428,A05,A0502,A05020900,http://tong.visitkorea.or.kr/cms/resource/00/2894300_image2_1.jpg,,카페·디저트,서울특별시,tourapi_food
2899723,39,성수부두,서울특별시 성동구 연무장길 41-26 (성수동2가),,127.0542869932,37.5434693994,A05,A0502,A05020100,http://tong.visitkorea.or.kr/cms/resource/19/2899719_image2_1.jpg,,한식,서울특별시,tourapi_food
2894252,39,성수온실,서울특별시 성동구 왕십리로4길 26-14,2층,127.0468736817,37.5469077553,A05,A0502,A05020100,http://tong.visitkorea.or.kr/cms/resource/41/2894241_image2_1.JPG,,한식,서울특별시,tourapi_food
2845075,39,성수일미락,서울특별시 성동구 상원6나길 22-20 (성수동1가),,127.0496428525,37.5476716052,A05,A0502,A05020100,http://tong.visitkorea.or.kr/cms/resource/68/2845068_image2_1.jpg,,한식,서울특별시,tourapi_food
2373394,39,성수족발,서울특별시 성동구 아차산로7길 7 (성수동2가),,127.0542869202,37.5460413229,A05,A0502,A05020100,http://tong.visitkorea.or.kr/cms/resource/85/3573785_image2_1.jpg,02-464-0425,한식,서울특별시,tourapi_food
2900081,39,성수지앵협동조합,서울특별시 성동구 왕십리로 101 (성수동1가),,127.0443266964,37.5467493946,A05,A0502,A05020900,http://tong.visitkorea.or.kr/cms/resource/66/2900066_image2_1.jpg,,카페·디저트,서울특별시,tourapi_food
2900106,39,성일정육점식당,서울특별시 성동구 아차산로3길 9 (성수동1가),,127.0469791871,37.548346479,A05,A0502,A05020100,http://tong.visitkorea.or.kr/cms/resource/92/2900092_image2_1.jpg,,한식,서울특별시,tourapi_food
2663476,39,성하,서울특별시 영등포구 국제금융로6길 30,,126.9266297904,37.5217779627,A05,A0502,A05020100,http://tong.visitkorea.or.kr/cms/resource/77/2663477_image2_1.jpg,,한식,서울특별시,tourapi_food
2899661,39,세디치,서울특별시 성동구 성수이로22길 37 (성수동2가),,127.0613307815,37.5439750229,A05,A0502,A05020200,http://tong.visitkorea.or.kr/cms/resource/57/2899657_image2_1.jpg,,서양식,서울특별시,tourapi_food
2899649,39,세스크 멘슬,서울특별시 성동구 성수이로14길 7,1층,127.0564257544,37.5411141555,A05,A0502,A05020200,http://tong.visitkorea.or.kr/cms/resource/48/2899648_image2_1.jpg,,서양식,서울특별시,tourapi_food
1887499,39,셀프하우스,서울특별시 강동구 올림픽로 572,코오롱 2차 아파트 101동 107호,127.1218033799,37.5325413292,A05,A0502,A05020100,,,한식,서울특별시,tourapi_food
2855507,39,셰프테이너,서울특별시 용산구 이태원로27길 101 (한남동),,126.9949314501,37.5377523303,A05,A0502,A05020200,http://tong.visitkorea.or.kr/cms/resource/99/2855499_image2_1.jpg,,서양식,서울특별시,tourapi_food
2907099,39,소금집델리 망원,서울특별시 마포구 월드컵로19길 14,2층,126.9082499196,37.556876333,A05,A0502,A05020200,http://tong.visitkorea.or.kr/cms/resource/79/2906879_image2_1.jpg,,서양식,서울특별시,tourapi_food
2900179,39,소랑호젠,서울특별시 성동구 왕십리로 58 (성수동1가),,127.0452211721,37.5427498754,A05,A0502,A05020200,http://tong.visitkorea.or.kr/cms/resource/65/2900165_image2_1.jpg,,서양식,서울특별시,tourapi_food
2837198,39,소문난성수감자탕 별관,서울특별시 성동구 연무장7길 4 해피드림,,127.0546230858,37.5430527872,A05,A0502,A05020100,http://tong.visitkorea.or.kr/cms/resource/96/2837196_image2_1.jpg,,한식,서울특별시,tourapi_food
2782928,39,소문난식당,서울특별시 영등포구 도림로141가길 32-1 (문래동4가),,126.8899027363,37.5162668351,A05,A0502,A05020100,http://tong.visitkorea.or.kr/cms/resource/69/2782769_image2_1.jpg,,한식,서울특별시,tourapi_food
2899573,39,소바식당,서울특별시 성동구 연무장7가길 6 (성수동2가),,127.0550091611,37.5430694587,A05,A0502,A05020300,http://tong.visitkorea.or.kr/cms/resource/64/2899564_image2_1.jpg,,일식,서울특별시,tourapi_food
402996,39,소선재,서울특별시 종로구 삼청로 113-1 (삼청동),,126.981806291,37.5855937574,A05,A0502,A05020700,,02-730-7002,체험음식,서울특별시,tourapi_food
2853799,39,소이연남,서울특별시 마포구 동교로 267 (연남동),,126.9253926121,37.563584193,A05,A0502,A05020700,http://tong.visitkorea.or.kr/cms/resource/94/2853794_image2_1.jpg,,체험음식,서울특별시,tourapi_food
2900222,39,소인수서울,서울특별시 성동구 왕십리로 136 (성수동1가),,127.0445793661,37.5497462735,A05,A0502,A05020100,http://tong.visitkorea.or.kr/cms/resource/86/2900186_image2_1.jpg,,한식,서울특별시,tourapi_food
2849337,39,속초그바람에 발산본점,서울특별시 강서구 강서로54길 11,,126.8392505896,37.5592387149,A05,A0502,A05020100,http://tong.visitkorea.or.kr/cms/resource/30/2849330_image2_1.jpg,,한식,서울특별시,tourapi_food
2654055,39,손가명가,서울특별시 중구 다동길 13,,126.9802541484,37.5681763099,A05,A0502,A05020100,http://tong.visitkorea.or.kr/cms/resource/44/2655244_image2_1.jpg,02-777-1013,한식,서울특별시,tourapi_food
2496274,39,손국수,서울특별시 성북구 성북로 89 (성북동),,126.9990045135,37.5929904285,A05,A0502,A05020100,http://tong.visitkorea.or.kr/cms/resource/64/3572764_image2_1.jpg,02-743-5640,한식,서울특별시,tourapi_food
2778422,39,송가네감자탕,서울특별시 마포구 동교로 245,(연남동),126.9240677806,37.5618926992,A05,A0502,A05020100,http://tong.visitkorea.or.kr/cms/resource/63/3576263_image2_1.jpg,,한식,서울특별시,tourapi_food
2856008,39,송강,서울특별시 서초구 명달로9길 5 (방배동),,127.0045016003,37.4819367623,A05,A0502,A05020100,http://tong.visitkorea.or.kr/cms/resource/99/2855999_image2_1.jpg,,한식,서울특별시,tourapi_food
323408,39,송림가,서울특별시 구로구 경인로 398,,126.864405601,37.4969991747,A05,A0502,A05020100,,"02-2066-6000,6006",한식,서울특별시,tourapi_food
2373384,39,송림식당,서울특별시 광진구 자양번영로 79,,127.0765490434,37.5368344594,A05,A0502,A05020100,http://tong.visitkorea.or.kr/cms/resource/71/2372571_image2_1.jpg,,한식,서울특별시,tourapi_food
2839440,39,송쉐프,서울특별시 송파구 백제고분로 357 (석촌동),1~2층,127.105655632,37.5049942363,A05,A0502,A05020400,http://tong.visitkorea.or.kr/cms/resource/35/2839435_image2_1.jpg,,중식,서울특별시,tourapi_food
133836,39,송원,서울특별시 중구 동호로24길 35-4,,127.005157639,37.5609609284,A05,A0502,A05020100,http://tong.visitkorea.or.kr/cms/resource/87/3582187_image2_1.jpg,,한식,서울특별시,tourapi_food
2809790,39,송월냉면,서울특별시 강동구 천중로18길 57 (천호동),1층,127.1295912789,37.5424292105,A05,A0502,A05020100,,,한식,서울특별시,tourapi_food
